longitude,latitude,pt_nome,pt_descric,pt_enderec
-46.77294812320426,-23.63042399005118,"TERM. CAMPO LIMPO , 0",R CAMPINA GRANDE/ AV VITOR GABRIEL,CAMPINA GRANDE/ AV VITOR GABRIEL
-46.47559667579667,-23.61345119630004,"TERM. S. MATEUS - PLAT. C , 0",AV SAPOPEMBA/ PC FELISBERTO FERNANDES DA SILVA,AV SAPOPEMBA/ PC FELISBERTO FERNANDES DA SILVA
-46.40966033893388,-23.58177814562852,"AV. SOUZA RAMOS , 406",LOJAS DE DOCE KAROL,LOJAS DE DOCE KAROL
-46.64161298667667,-23.69901030203051,"R. CARDOSO DE MELO NETO , 497",R DOS CURIMATAS/ R DELFIM DO PRATA,DOS CURIMATAS/ R DELFIM DO PRATA
-46.47887682565261,-23.56166843655741,"R. MORUBIXABA , 440",R CARLOS JOSE DE CASTILHO/ R SEIS,CARLOS JOSE DE CASTILHO/ R SEIS
-46.45568401851035,-23.56228136640066,"ESTR. MORRO DOS OLHOS D'ÁGUA , 382",R MARIA MARGARIDA/ R CARRETEIRO,MARIA MARGARIDA/ R CARRETEIRO
-46.62589884219453,-23.48846219019597,"R. VOLUNTÁRIOS DA PÁTRIA , 3566",R DR. GUILHERME CRISTOFEL/ R TOME FERREIRA,DR. GUILHERME CRISTOFEL/ R TOME FERREIRA
-46.58298616373096,-23.49963801568817,"PÇA. PRES. JÂNIO DA SILVA QUADROS , 281",V-PED ALVURA,V-PED ALVURA
-46.44849587391362,-23.62213707867344,"AV. SAPOPEMBA (ESTR. DO RIO CLARO) , 0",R VICENTE COSTA NOGUERAS/ R CINIRA POLONIO,VICENTE COSTA NOGUERAS/ R CINIRA POLONIO
-46.69594979384415,-23.622907797749,"AV. ROQUE PETRONI JÚNIOR , 999",AV DOUTOR CHUCRI ZAIDAH,AV DOUTOR CHUCRI ZAIDAH
-46.69458625651607,-23.49151637642289,"R. BAIÃO PARENTE , 596",AVENIDA ITABERABA,AVENIDA ITABERABA
-46.44619788148955,-23.62556305672157,"AV. DOS SERTANISTAS , 522",RUA CAMPO DE PIRATININGA,UA CAMPO DE PIRATININGA
-46.45441516195362,-23.52341853621979,"R. FRANCISCO ALARICO BERGAMO , 754",R FRANCISCO SALLES MALTA JUNIOR/ R VICENTE DUTRA,FRANCISCO SALLES MALTA JUNIOR/ R VICENTE DUTRA
-46.44730423603546,-23.51922453432726,"R. FLOR DE SANTA CRUZ , 318",Próximo a Rua Nicolau Campanella,Próximo a Rua Nicolau Campanella
-46.64044448552445,-23.55702892764144,"AV. BRIG. LUÍS ANTÔNIO , 878",R HUMAITA/ R CONDESSA DE SAO JOAQUIM,HUMAITA/ R CONDESSA DE SAO JOAQUIM
-46.39785536541166,-23.60307101627619,"R. DOS PEDREIROS , 0",R TIBERIO FRONTINI/ R LUIS VERONEZI,TIBERIO FRONTINI/ R LUIS VERONEZI
-46.53845228616109,-23.57306555914597,"AV. MONTEMAGNO , 2808",R PEDRO LAROCHE/ TR ANTONIO LUIS,PEDRO LAROCHE/ TR ANTONIO LUIS
-46.63369854518099,-23.55612191200177,"VIAD. MIE KEN , 0",Rua da Glória,ua da Glória
-46.75081240772629,-23.60164605235496,"AV. INTERCONTINENTAL , 330",R SARGENTO ESTANISLAU CUSTODIO/ R ENGENHEIRO ARTUR DE MIRANDA,SARGENTO ESTANISLAU CUSTODIO/ R ENGENHEIRO ARTUR DE MIRANDA
-46.69013191414732,-23.6021338726891,"AV. NOVA INDEPENDÊNCIA , 632",R TAPEROA/ R PREBIXIM,TAPEROA/ R PREBIXIM
-46.59778918806769,-23.45614325259125,"R. MARIA AMALIA LOPES DE AZEVEDO , 2927",R NOSSA SENHORA DA CONCORDIA/ R ANTONIO ALVAREZ AIRAO,NOSSA SENHORA DA CONCORDIA/ R ANTONIO ALVAREZ AIRAO
-46.61107451235796,-23.62089655848159,"AV. PRES. TANCREDO NEVES , 3583",RUA MAURICIO MATTAR,UA MAURICIO MATTAR
-46.64464459442847,-23.51498112672828,"AV. OLAVO FONTOURA , 1400",HOSPITAL DA AERONAUTICA,HOSPITAL DA AERONAUTICA
-46.47527181578793,-23.57340337375504,"AV. AFONSO DE SAMPAIO E SOUSA , 1800",R ESTEVAO DIAS VERGARA/ R FREI CRISTOVAO SEVERIM,ESTEVAO DIAS VERGARA/ R FREI CRISTOVAO SEVERIM
-46.58521317624448,-23.49050706285179,"R. REV. ISRAEL VIEIRA FERREIRA , 615",AV NSRA DO LORETO/ R FRANCISCO MEDEIROS JORDAO,AV NSRA DO LORETO/ R FRANCISCO MEDEIROS JORDAO
-46.78611566432635,-23.44087586779905,"ROD. ANHANGUERA , 0",R PEDRO JOSE DE LIMA/,PEDRO JOSE DE LIMA/
-46.57160711991939,-23.54035780124304,"R. FERNANDES PINHEIRO , 143",R MELO FREIRE/ R PLATINA,MELO FREIRE/ R PLATINA
-46.45331483929593,-23.6204121003934,"AV. SAPOPEMBA , 25826",R Cinira Polonio,Cinira Polonio
-46.62686441972247,-23.60932465592918,"R. IBIRAREMA , 332",R TRISTAO MARIANO/ R PORANGABA,TRISTAO MARIANO/ R PORANGABA
-46.73784169403039,-23.83873396990902,"ESTR. ENG. MARSILAC , 1815",,
-46.41644859527759,-23.48992857592885,"R. ERVA DE SANTA LUZIA , 268",RUA HORTELÃ/RUA CARLO BIBIENA,UA HORTELÃ/RUA CARLO BIBIENA
-46.67065834138967,-23.52523615691371,"AV. AURO SOARES DE MOURA ANDRADE , 0",Av. Antártica / R. Prof. Abrahão Berezin,Av. Antártica / R. Prof. Abrahão Berezin
-46.68873069691062,-23.66852557489372,"AV. NSA. SRA. DO SABARÁ , 1570",R SANTO ALBERTO/ R MONSENHOR ALFREDO PEREIRA SAMPAIO,SANTO ALBERTO/ R MONSENHOR ALFREDO PEREIRA SAMPAIO
-46.68306133160326,-23.49776631509514,"AV. ANTÔNIO MUNHOZ BONILHA , 640",R SAO LEANDRO/ R ELIAS DA COSTA,SAO LEANDRO/ R ELIAS DA COSTA
-46.75297425264432,-23.64134988325968,"AV. LUCILO DE ALMEIDA , 273",R PADRE JUSTINO/ R ISAIAS TARANDACH,PADRE JUSTINO/ R ISAIAS TARANDACH
-46.68267843812139,-23.4675534483355,"R. PAJUÇARA , 161",R. PAULO GARCIA AQUILINE,PAULO GARCIA AQUILINE
-46.70405707817628,-23.52044127553915,"R. DOZE DE OUTUBRO , 347",R CLEMENTE ALVARES/ R ANTONIO RAPOSO,CLEMENTE ALVARES/ R ANTONIO RAPOSO
-46.6421488130565,-23.45712837697519,"R. RAUL BISPO DOS SANTOS , 0",R ACALANTO/ R ALVARO CARLOS LEAL,ACALANTO/ R ALVARO CARLOS LEAL
-46.48526167660587,-23.58952233100128,"R. DR. PAULO QUEIROZ , 1080",R   FRANCISCO DE MAGALHAES,FRANCISCO DE MAGALHAES
-46.64714026963323,-23.60353174084751,"R. LUÍS GOIS , 2021",R. LEANDRO DUPRE,LEANDRO DUPRE
-46.44402514293407,-23.55456136697634,"R. JARDIM TAMOIO , 53",R CARAMBOLA/ R SABBADO D ANGELO,CARAMBOLA/ R SABBADO D ANGELO
-46.55989131412643,-23.51231689206844,"AV. EDUCADOR PAULO FREIRE , 0",SABESP,SABESP
-46.4933247519076,-23.54773654068558,"R. SATURNINO DE SOUZA , 525",R EMB.  OSVALDO TAVARES,EMB.  OSVALDO TAVARES
-46.42253511614033,-23.6151980339952,"AV. BENTO GUELFI , 2748",ESTRADA DOS FIDELIS - OPOSTO,ESTRADA DOS FIDELIS - OPOSTO
-46.64005842819608,-23.57467284818311,"R. VERGUEIRO , 1485",R TUPINAMBAS/ R CORREIA DIAS,TUPINAMBAS/ R CORREIA DIAS
-46.67506975705599,-23.6842594653219,"R. JOSÉ FUGULIM , 46",R SAO CANUTO/ R OLGA MIL HOMENS COSTA,SAO CANUTO/ R OLGA MIL HOMENS COSTA
-46.7064762985705,-23.74060330895366,"R. RUBEM SOUTO DE ARAÚJO , 1077",R VIRIATO LEAO DE MOURA/ AV CARLOS OBERHUBER,VIRIATO LEAO DE MOURA/ AV CARLOS OBERHUBER
-46.52919954125773,-23.52122576316386,"AV. AMADOR BUENO DA VEIGA , 1652",R GILBERTO NATALIO REGATIERI/ R PICO DO PAPAGAIO,GILBERTO NATALIO REGATIERI/ R PICO DO PAPAGAIO
-46.63167941419921,-23.59918971494294,"R. LOEFGREEN , 672",R JAIME VIANA/ R JOSE ALVES PASSOS,JAIME VIANA/ R JOSE ALVES PASSOS
-46.61479788345991,-23.50360709049022,"AV. ZAKI NARCHI , 1503",AV GENERAL ATALIBA LEONEL/ R DOM JOSE MAURICIO,AV GENERAL ATALIBA LEONEL/ R DOM JOSE MAURICIO
-46.48708586816141,-23.52905860588235,"R. JUAZEIRO DO NORTE , 298",R. RIO TAPACURA,RIO TAPACURA
-46.66314186674363,-23.68146344270559,"R. PEIXOTO MELO FILHO , 0",R CESAR COSTA/ R PADRE JOSE GIANNELLA,CESAR COSTA/ R PADRE JOSE GIANNELLA
-46.53014157692048,-23.50847082278744,"R. S. FLORÊNCIO , 1464",RESIDENCIAL SOLAR,ESIDENCIAL SOLAR
-46.65026499597035,-23.67531943212985,"R. PST. RUBENS LOPES , 400",RUA PUBLICO PIMENTEL,UA PUBLICO PIMENTEL
-46.40206056156024,-23.53533133108364,"ESTR. DO LAGEADO VELHO , 670",R SERRA DAS ARARAS/ R JOAO MARCHI,SERRA DAS ARARAS/ R JOAO MARCHI
-46.66244398665681,-23.64842958674915,"R. DR. DJALMA PINHEIRO FRANCO , 89",AV SANTA CATARINA,AV SANTA CATARINA
-46.62654782805266,-23.49100918074227,"R. PEDRO DOLL , 96",R CANTO DO JUNCO/ R JOSE DOLL DE MORAES,CANTO DO JUNCO/ R JOSE DOLL DE MORAES
-46.76788032603618,-23.58390418075137,"ROD. RAPOSO TAVARES , 5909",R JOSE SILVANO FILHO/ R NORONHA SANTOS,JOSE SILVANO FILHO/ R NORONHA SANTOS
-46.73968482602256,-23.50703143890706,"R. INÁCIO LUÍS DA COSTA , 1888",RUA BRG. HENRIQUE FONTENELLE,UA BRG. HENRIQUE FONTENELLE
-46.54651712897981,-23.59914546664286,"R. JAIME PAIVA , 210",R MANDUVIRA/ AV ASTOLFO DUTRA,MANDUVIRA/ AV ASTOLFO DUTRA
-46.46575978313457,-23.60627219961391,"R. FORTE DO RIO BRANCO , 161",AV FORTE DO LEME,AV FORTE DO LEME
-46.66455545302853,-23.50756421766837,"R. REIMS , 375",R MOURAO VIEIRA/ R DR. RIBAS BOTELHO,MOURAO VIEIRA/ R DR. RIBAS BOTELHO
-46.52905442261039,-23.55626960656779,"R. FRANCISCA DE PAULA , 275",Prox. Av. 19 de Janeiro,Prox. Av. 19 de Janeiro
-46.68471425570529,-23.51589023937987,"AV. MQ. DE SÃO VICENTE , 2728",R FRANCISCO LUIS DE SOUZA JUNIOR/ AV NICOLAS BOER,FRANCISCO LUIS DE SOUZA JUNIOR/ AV NICOLAS BOER
-46.7185210998428,-23.47876950274008,"AV. COM. FEIZ ZARZUR , 310",AV. MIGUEL DE CASTRO,AV. MIGUEL DE CASTRO
-46.65849297854001,-23.66038252229776,"R. CDE. MOREIRA LIMA , 295",TR LACERDA COUTINHO/ R VIRGILIO DE LEMOS,TR LACERDA COUTINHO/ R VIRGILIO DE LEMOS
-46.64410711086584,-23.65699849514646,"R. DAS GUASSATUNGAS , 88",RUA DAS CRUZADAS,UA DAS CRUZADAS
-46.68134749047866,-23.45548549817067,"R. BERNARDO DE VERA , 11",R. MANOEL AQUILINO DOS SANTOS,MANOEL AQUILINO DOS SANTOS
-46.79401563704211,-23.42954894109194,"R. ALBERTO ALVAREZ , 189",RUA ALBERTO GENTILI,UA ALBERTO GENTILI
-46.64065467262169,-23.50189917330268,"R. ALFREDO PUJOL , 1627",R. HELIODORA,HELIODORA
-46.66277323288909,-23.86483563361488,"ESTR. DA BARRAGEM , 9000",ESTRADA EVANGELISTA DE SOUZA,ESTRADA EVANGELISTA DE SOUZA
-46.73385728623806,-23.6779396656862,"AV. GUARAPIRANGA , 1103",R JAGUARIBARA/ R IRUTIM,JAGUARIBARA/ R IRUTIM
-46.41239451438577,-23.52367641317413,"R. BENEDITO DE SOUZA BORGES , 60",R CON.  ANTONIO MANZI,CON.  ANTONIO MANZI
-46.70113462394028,-23.659556650883,"AV. WASHINGTON LUIZ , 340",R SAO LEONIDAS/ R PIRANCHIN,SAO LEONIDAS/ R PIRANCHIN
-46.67622962156383,-23.72059930827272,"AV. PRES. JOÃO GOULART , 2720",Pça Ramires Ferreira,Pça Ramires Ferreira
-46.49603088216046,-23.50294874841104,"R. MONS. MEIRELES , 700",R SANTO ANTÔNIO DO RIACHO,SANTO ANTÔNIO DO RIACHO
-46.5279636047864,-23.50566382898522,"AV. CANGAIBA , 2836",R ALMIRANTE BULCAO VIANA/ R MAESTRO VASCONCELOS CHAVES,ALMIRANTE BULCAO VIANA/ R MAESTRO VASCONCELOS CHAVES
-46.68273049625618,-23.45040252481585,"R. FIRMINÓPOLIS , 164",R ARARIPIRA/ R PIAPARA,ARARIPIRA/ R PIAPARA
-46.79026259745057,-23.45030283801268,"R. FRANCISCO BELLAZI , 290",R DENIS BREAN/ R OSORIO ALVES DE CASTRO,DENIS BREAN/ R OSORIO ALVES DE CASTRO
-46.6316098364574,-23.47613426169439,"AV. STA. INÊS , 281",R ENGENHEIRO JEAN BUFF/ R PROFESSOR JOSE PARDELLI,ENGENHEIRO JEAN BUFF/ R PROFESSOR JOSE PARDELLI
-46.70180512065029,-23.5135482995775,"AV. ERMANO MARCHETTI , 1051",R BELCHIOR CARNEIRO/ PC SEBASTIAO JAYME PINTO,BELCHIOR CARNEIRO/ PC SEBASTIAO JAYME PINTO
-46.61463662017744,-23.58083874664283,"R. CEL. DIOGO , 1430",R ROCHA GALVAO/ R DOUTOR CLEMENTE JOBIM,ROCHA GALVAO/ R DOUTOR CLEMENTE JOBIM
-46.63004960877154,-23.54649794412319,"TERM. PARQUE DOM PEDRO II - PLAT 01 , 0",PLATAFORMA 01 - (PMV - 06).,PLATAFORMA 01 - (PMV - 06).
-46.67555937560753,-23.50326126883148,"AV. NSA. SRA. DO Ó , 349",R EULALIO DA COSTA CARVALHO/ R MATEUS MASCARENHAS,EULALIO DA COSTA CARVALHO/ R MATEUS MASCARENHAS
-46.39543269190591,-23.5134554097373,"R. CORNÉLIO DE ARZÃO , 50",R. Antônio João de Medeiros,Antônio João de Medeiros
-46.70678192313414,-23.55897311256527,"AV. DAS NAÇÕES UNIDAS , 0",,
-46.65958091653427,-23.67569645776144,"AV. YERVANT KISSAJIKIAN , 0",R ESTANISLAU MONIUSKO/ R BEMAVENTURANCA,ESTANISLAU MONIUSKO/ R BEMAVENTURANCA
-46.65423336197113,-23.55935795751288,"AV. NOVE DE JULHO , 2130",R DONA ADMA JAFET/ VDTO PROFESSOR BERNARDINO TRANCHESI,DONA ADMA JAFET/ VDTO PROFESSOR BERNARDINO TRANCHESI
-46.64469701228604,-23.68411637691349,"R. GIUSEPPE BOSCHI , 49",TRAVESSA BAURU,TRAVESSA BAURU
-46.75193952188691,-23.56574921446081,"AV. DO RIO PEQUENO , 713",AV OTACILIO TOMANIK/ R DR. SERGIO RUIZ DE ALBUQUERQUE,AV OTACILIO TOMANIK/ R DR. SERGIO RUIZ DE ALBUQUERQUE
-46.71748464665975,-23.90113163613039,"ESTR. ENG. MARSILAC , 12000",EST PONTE SECA/ EST DA LAGOA,EST PONTE SECA/ EST DA LAGOA
-46.58053698433417,-23.55806774844052,"R. DO ACRE , 496",R NATAL/ R PIRACUNUNGA,NATAL/ R PIRACUNUNGA
-46.71886355246798,-23.63723880146089,"R. LUIZ SERAPHICO JUNIOR , 0",R BRAGANCA PAULISTA/ R CARMO DO RIO VERDE,BRAGANCA PAULISTA/ R CARMO DO RIO VERDE
-46.42054156307674,-23.48927859069205,"R. S. GONÇALO DO RIO DAS PEDRAS , 908",R ADRIANO SEABRA/ R CARLO BIBIENA,ADRIANO SEABRA/ R CARLO BIBIENA
-46.66552265757564,-23.73612420832589,"ESTR. CANAL DA COCAIA , 2601",R CLAUDIO ARTARIA/ AV GAIVOTAS,CLAUDIO ARTARIA/ AV GAIVOTAS
-46.77294906656542,-23.64681591770927,"R. JOSÉ RAMOS FERNANDES , 627",R MOACYR MACHADO CASTANHO/ R ODEMIS,MOACYR MACHADO CASTANHO/ R ODEMIS
-46.67733898914013,-23.61148479387337,"AV. STO. AMARO , 3159",R DEMOSTENES/ R LUISIANIA,DEMOSTENES/ R LUISIANIA
-46.7427851236778,-23.41238486849049,"R. ERNESTO BOTTONI , 0",R POLIFONTES/ R SEM NOME,POLIFONTES/ R SEM NOME
-46.67439343980755,-23.48735033617779,"R. THOMAZ ANTÔNIO VILLANI , 135",Av. Dep. Emílio Carlos/Rua Henrique Almeida,Av. Dep. Emílio Carlos/Rua Henrique Almeida
-46.68970512152731,-23.5428361343013,"AV. POMPEIA , 2287",PC NOSSA SENHORA DO CARMO/ R CUXIPONES,PC NOSSA SENHORA DO CARMO/ R CUXIPONES
-46.68972915958034,-23.53168418386459,"R. TAVARES BASTOS , 834",R RAUL POMPEIA/ R DOUTOR AUGUSTO DE MIRANDA,RAUL POMPEIA/ R DOUTOR AUGUSTO DE MIRANDA
-46.58101982304565,-23.60388654621566,"AV. PRES. WILSON , 6747",RUA ALCATIS,UA ALCATIS
-46.60869999211613,-23.48676814775326,"AV. LUÍS DUMONT VILARES , 1721",R INGLESA/ R TOME PORTES,INGLESA/ R TOME PORTES
-46.47425284684823,-23.56683140009072,"AV. MARIA LUIZA AMERICANO , 1741",R MORUBIXABA/ VEL QUATORZE,MORUBIXABA/ VEL QUATORZE
-46.70068111432251,-23.51814027591401,"R. WILLIAM SPEERS , 674",R TENENTE LANDY/ R ALVES BRANCO,TENENTE LANDY/ R ALVES BRANCO
-46.49570476138632,-23.53911658604658,"AV. ANTÔNIO ESTEVÃO DE CARVALHO , 3438",PRAÇA GUAJARÁ - MIRIM,PRAÇA GUAJARÁ - MIRIM
-46.67319207494281,-23.59665284745562,"AV. STO. AMARO , 1481",R NATIVIDADE/ R DAS FIANDEIRAS,NATIVIDADE/ R DAS FIANDEIRAS
-46.63363525435194,-23.64085953595743,"R. BICUDO DE BRITO , 631",R INAJATUBA/ R GENERAL GASTAO GOULART,INAJATUBA/ R GENERAL GASTAO GOULART
-46.64395352159337,-23.53793502268648,"AL. BR. DE LIMEIRA , 266",AV DUQUE DE CAXIAS/ R GENERAL OSORIO,AV DUQUE DE CAXIAS/ R GENERAL OSORIO
-46.76551918562499,-23.63035096859781,"R. JORN. JOSÉ LEITE PINTO , 350",,
-46.44491012637933,-23.55722735764681,"AV. JACU-PÊSSEGO/NOVA TRABALHADORES , 35",R AGRIMENSOR SUGAYA/ R TOME ALVARES DE CASTRO,AGRIMENSOR SUGAYA/ R TOME ALVARES DE CASTRO
-46.47022296488353,-23.54222049816251,"TERM. METRÔ ITAQUERA PL. D , 0","Avenida Dr. Luís Aires, s/n°","Avenida Dr. Luís Aires, s/n°"
-46.62714697644378,-23.44606438273554,"AV. LUIZ CARLOS GENTILE DE LAET , 2500",EST DO GUARAU,EST DO GUARAU
-46.46936597230459,-23.54215649595867,"TERM. METRÔ ITAQUERA PL. E , 0",,
-46.68332342433773,-23.47000743929325,"R. CAIAPÉ , 189",R CARLOS MARIA MONTEIRO/ R BARREIRO,CARLOS MARIA MONTEIRO/ R BARREIRO
-46.60602250392645,-23.63565947825773,"AV. PE. ARLINDO VIEIRA , 1800",R SAO ALFEU/ R NAGIB TANUS GASTIN,SAO ALFEU/ R NAGIB TANUS GASTIN
-46.61106155474794,-23.60860561296386,"R. VERGUEIRO , 7385",R LINO GUEDES/ R JEREMIAS JUNIOR,LINO GUEDES/ R JEREMIAS JUNIOR
-46.74593134250884,-23.63239990214452,"R. MÁRIO LINHARES , 729",R CHINIGUA/ R PROFESSOR LUIS MAGALHAES DE ARAUJO,CHINIGUA/ R PROFESSOR LUIS MAGALHAES DE ARAUJO
-46.58303636962063,-23.43914928564412,"R. TITO LESSI , 18",R TOLEDO BASSI/ R ANTONIO QUINTILIANO,TOLEDO BASSI/ R ANTONIO QUINTILIANO
-46.57402205132947,-23.55446874547675,"R. MAL. BARBACENA , 474",R DANTE PELLACANI/ R BENTO GONCALVES,DANTE PELLACANI/ R BENTO GONCALVES
-46.48782384737705,-23.5333275889756,"R. DOS CONTINENTES , 284",R MARCIANO CAPELLA/ AV ANTONIO DIOGO,MARCIANO CAPELLA/ AV ANTONIO DIOGO
-46.69122030697918,-23.77502211247004,"AV. CARLOS ALBERTO BASTOS MACHADO , 52",R MANUEL CANALES/ R CAETANO BENI,MANUEL CANALES/ R CAETANO BENI
-46.67220551169477,-23.76201211382486,"AV. CARLOS BARBOSA DOS SANTOS (ESTR. BARRO BRANCO) , 963",RUA PROF.  AURÉLIO ARROBA MARTINS,UA PROF.  AURÉLIO ARROBA MARTINS
-46.56307120470792,-23.53651079353359,"TERM. METRÔ CARRÃO (LADO NORTE) , 0",,
-46.64508248274802,-23.54650598789912,"AV. IPIRANGA , 102",R DA CONSOLACAO/ R EPITACIO PESSOA,DA CONSOLACAO/ R EPITACIO PESSOA
-46.7245968811277,-23.5277733028976,"R. TEBICUARI , 765",R CORDILHEIRAS/ R PASSO DA PATRIA,CORDILHEIRAS/ R PASSO DA PATRIA
-46.69850478896865,-23.61811182644725,"LAT. DA PONTE DO MORUMBI , 0",,
-46.69375701043634,-23.85404377250495,"ESTR. DA BARRAGEM , 817",RUA APARECIDA,UA APARECIDA
-46.68575137179261,-23.47943440442485,"AV. JOÃO PAULO PRIMEIRO , 1598",R MQ. DE RECIFE/ R DOMINGOS GAVA,MQ. DE RECIFE/ R DOMINGOS GAVA
-46.43076430798553,-23.53888839846649,"TERM. CPTM JOSÉ BONIFÁCIO PL 1 , 0",,
-46.69666702214383,-23.55480510151963,"R. NATINGUI , 998",R DOS MORAS/ R SAGARANA,DOS MORAS/ R SAGARANA
-46.39398360811457,-23.54160427960425,"R. JOÃO DA SILVA AGUIAR , 35",R GIBOIUCUS/ R LUIS CESAR DE MENEZES,GIBOIUCUS/ R LUIS CESAR DE MENEZES
-46.7359293167221,-23.66410773280726,"R. VICENTE DÉCARA NETO , 140",RUA JOSÉ BARROS MAGALDI,UA JOSÉ BARROS MAGALDI
-46.70124265384626,-23.65063469062894,"R. COM. ELIAS ZARZUR , 120",OP. 98/120 - PREV. SOCIAL,OP. 98/120 - PREV. SOCIAL
-46.75618979768111,-23.47500862912026,"PÇA. VILA ESPERANÇA , 13",R OLINDA/ R CALDAS NOVAS,OLINDA/ R CALDAS NOVAS
-46.65088408801677,-23.64714555859366,"R. PARNAÍBA PAULIELLO , 230",R ALEXANDRE MARTINS RODRIGUES/ R GERALDO SALINI ROMEO,ALEXANDRE MARTINS RODRIGUES/ R GERALDO SALINI ROMEO
-46.47151212820294,-23.49118872983966,"R. GUIDO BONICI , 303",R RAFAEL AUGUSTO PINHEIRO/ R GUIDO BONICI,RAFAEL AUGUSTO PINHEIRO/ R GUIDO BONICI
-46.52265339393852,-23.58033048080248,"R. ARAMBARE , 34",R ANTONIO LEBEL/ R BARTOLOMEU ABRIL,ANTONIO LEBEL/ R BARTOLOMEU ABRIL
-46.68952835715962,-23.47446743750112,"R. BR. DE SANTO ÂNGELO , 55",RUA PARAPUÃ,UA PARAPUÃ
-46.601671076959,-23.47917516116612,"TERM. METRÔ TUCURUVI 2 , 0",,
-46.53872824479198,-23.58445550926988,"R. SOLIDÔNIO LEITE , 2044",R JAMAXI/ R PADRE MARCEL CUTSEM,JAMAXI/ R PADRE MARCEL CUTSEM
-46.70851729183385,-23.73761332812984,"R. JOSÉ BOCHIGLIERI , 39",RUA VENANCIO POLETTI,UA VENANCIO POLETTI
-46.46727201313215,-23.53535752022477,"PÇA. DAS PROFESSORAS , 0",AV DOS ALAMANDAS/ R FERDINANDO BIBIENA,AV DOS ALAMANDAS/ R FERDINANDO BIBIENA
-46.61355237469559,-23.65482641534075,"AV. DO CURSINO , 6325",R ANGELO BERTINI/ AV DOS OURIVES,ANGELO BERTINI/ AV DOS OURIVES
-46.37270795220177,-23.49315943482851,"R. JOÃO BATISTA DE GODOI , 695",,
-46.58216908327048,-23.52517689955695,"R. NESTOR DE HOLANDA , 120",R. ARMANDO RODRIGUES,ARMANDO RODRIGUES
-46.75020308892892,-23.40439292560074,"VIAD. DA. MORA GUIMARÃES , 0",R JOAQUIM DE SOUSA/ R BERNARDO JOSE DE LORENA,JOAQUIM DE SOUSA/ R BERNARDO JOSE DE LORENA
-46.64652427997122,-23.60202774571576,"R. LEANDRO DUPRÉ , 890",AV. DR. ALTINO ARANTES,AV. DR. ALTINO ARANTES
-46.65617700434643,-23.65853252369927,"R. CIDADE DE BAGDÁ , 943",R TERRAS DE CAMBRA/ R EMILIO DE SOUSA DOCCA,TERRAS DE CAMBRA/ R EMILIO DE SOUSA DOCCA
-46.63375649781931,-23.56978185150965,"R. LOUREIRO DA CRUZ , 241",R RODRIGO CLAUDIO/ R SATURNO,RODRIGO CLAUDIO/ R SATURNO
-46.75832868050747,-23.50399450673588,"R. BETIM PAES LEME , 41",RUA ANDRE REBOUCAS,UA ANDRE REBOUCAS
-46.56076500987262,-23.59899350886515,"R. BR. DE TRAMANDAÍ , 293",RUA CATAUXIS,UA CATAUXIS
-46.66782645381813,-23.49932926380094,"R. CAROLINA SOARES , 570",R LAGOA AZUL/ R DIOGO DE OLIVEIRA,LAGOA AZUL/ R DIOGO DE OLIVEIRA
-46.69679280769071,-23.61684082706281,"AV. DR. CHUCRI ZAIDAN , 246",RUA BALTAZAR FERNANDES,UA BALTAZAR FERNANDES
-46.6676091273901,-23.59500683843746,"R. AFONSO BRAZ , 446",R BARRA DO PEIXE/ R ESCOBAR ORTIZ,BARRA DO PEIXE/ R ESCOBAR ORTIZ
-46.50719179512235,-23.50098978954639,"R. PASTORIL DE ITAPETINGA , 73",R S JOSE DO CAMPESTRE/ R EUDELIO RAMOS,S JOSE DO CAMPESTRE/ R EUDELIO RAMOS
-46.68015595450324,-23.61468778792776,"AV. PE. ANTÔNIO JOSÉ DOS SANTOS , 77",Av. Santo Amaro,Av. Santo Amaro
-46.6808034052821,-23.77188109564099,"R. GONZALO BERCEO , 129",R ANACREONTE/ AV ADELINA ABRANCHES,ANACREONTE/ AV ADELINA ABRANCHES
-46.62564759021364,-23.56266885944923,"R. MAZZINI , 61",R SCUVERO/ R JOAQUIM PIZA,SCUVERO/ R JOAQUIM PIZA
-46.71151801494294,-23.52067029627222,"R. SACADURA CABRAL , 71",R SACADURA CABRAL/ R CORUMBATAI,SACADURA CABRAL/ R CORUMBATAI
-46.70661826024009,-23.46098154718274,"R. ENCRUZILHADA DO SUL , 0",R JOAQUIM DE SOUZA BRITO/ R OLIRIA FARIA DE LIMA,JOAQUIM DE SOUZA BRITO/ R OLIRIA FARIA DE LIMA
-46.49367473464651,-23.55192352303308,"AV. ITAQUERA , 2931",R GUIOMAR DE ATALIBA PENTEADO/ R OLGA SILVEIRA CAMPOS,GUIOMAR DE ATALIBA PENTEADO/ R OLGA SILVEIRA CAMPOS
-46.64815415319204,-23.63488060490825,"AV. PEDRO BUENO , 552",RUA JOÃO GABI,UA JOÃO GABI
-46.47277567070255,-23.62184715070739,"R. DOMINGOS PEIXOTO , 458",R CORREIA BUENO/ AV BARONESA DE MURITIBA,CORREIA BUENO/ AV BARONESA DE MURITIBA
-46.69506729306394,-23.47965543054595,"AV. MIN. PETRÔNIO PORTELA , 2247",R SEM NOME/ R TOMAS DE KEMPIS,SEM NOME/ R TOMAS DE KEMPIS
-46.67257748722764,-23.47792737280893,"AV. INAJAR DE SOUZA , 3750",R.  ALDO LACRETA,ALDO LACRETA
-46.40943355018505,-23.52048141887936,"AV. TEODORO BERNARDO DO NASCIMENTO , 637",R FRANCISCO MONTEIRO TAVARES/ R JOAO BARBOSA DE LIMA,FRANCISCO MONTEIRO TAVARES/ R JOAO BARBOSA DE LIMA
-46.59705003849896,-23.50177604704005,"AV. ANGELINA , 359",R ENGENHEIRO CIAMPITI/ TR DORIDE,ENGENHEIRO CIAMPITI/ TR DORIDE
-46.7278645285468,-23.62232289375782,"R. ANTÔNIO FERREIRA DE CASTILHO , 388",Rua José Pedro de Carvalho Lima,ua José Pedro de Carvalho Lima
-46.71354822429497,-23.45453359601133,"R. CARMEM CUNHA , 257",R BR. DE SUACUNA/ R SERRA DE MARACAJU,BR. DE SUACUNA/ R SERRA DE MARACAJU
-46.52324241492834,-23.57276251620766,"R. MANUEL FIGUEIREDO , 42",RUA CORREIA LACERDA,UA CORREIA LACERDA
-46.43116026070523,-23.55175634213552,"R. FREI ANTÔNIO FAGGIANO , 637",R ANTONIO PASSY/ R BOB MARLEY,ANTONIO PASSY/ R BOB MARLEY
-46.71457036945931,-23.70058150917892,"AV. ATLÂNTICA , 3813",AV PARANOPOLIS/ PC PROFESSOR MELLO E SOUZA,AV PARANOPOLIS/ PC PROFESSOR MELLO E SOUZA
-46.67631304509899,-23.59772585182151,"AV. HÉLIO PELLEGRINO , 1200",R THERESA DE CAPUA/ R UBERABINHA,THERESA DE CAPUA/ R UBERABINHA
-46.68868934843454,-23.76920213064794,"R. AGENOR KLAUSSNER , 197",RUA GEN. JOSÉ CORRÊA,UA GEN. JOSÉ CORRÊA
-46.63267000386931,-23.71573420189565,"ESTR. DO ALVARENGA , 5124",R HORNI/ R ZILIC,HORNI/ R ZILIC
-46.7572737237626,-23.49394754822653,"ROD. ANHANGUERA , 11072",EST TURISTICA DO JARAGUA/ AV JORN. PAULO ZING,EST TURISTICA DO JARAGUA/ AV JORN. PAULO ZING
-46.62067251778052,-23.59590969735795,"R. ENG. GUILHERME WINTER , 0",R SANTO EUGENIO OLIVI/ AV DOUTOR RICARDO JAFET,SANTO EUGENIO OLIVI/ AV DOUTOR RICARDO JAFET
-46.61415776384582,-23.54012292616448,"R. VISC. DE ABAETE , 79",,
-46.65627369077934,-23.45829841279145,"AV. LAGOA SANTA , 82",R ANTONIO DA FRANCA E HORTA/ AV DA. MARIANA GALIGIORI RONCHETTI,ANTONIO DA FRANCA E HORTA/ AV DA. MARIANA GALIGIORI RONCHETTI
-46.47100695901581,-23.54200950138159,"TERM. METRÔ ITAQUERA PL. B , 0",,
-46.71423424829335,-23.44582663673515,"R. JOÃO AMADO COUTINHO , 0",R JOSE PIZA/ R EGIDIO FELINE,JOSE PIZA/ R EGIDIO FELINE
-46.69411234102547,-23.46796347976052,"ESTR. LÁZARO AMÂNCIO DE BARROS , 62",R OLINTHO FRAGA MOREIRA/ R NEREU RANGEL PESTANA,OLINTHO FRAGA MOREIRA/ R NEREU RANGEL PESTANA
-46.43861705110876,-23.59469017222267,"AV. RAGUEB CHOHFI , 4831",R PEDRO LOURO/ R FRANCISCO BARBOSA,PEDRO LOURO/ R FRANCISCO BARBOSA
-46.58299788263287,-23.58170065054416,"R. INDAIÁ , 172",PC DO CENTENARIO DE VILA PRUDENTE/ R CARLOS MULLER,PC DO CENTENARIO DE VILA PRUDENTE/ R CARLOS MULLER
-46.53976517498756,-23.60226043310827,"R. CAOPIÁ , 249",R ANAVINGA/ R LISA ANSORGE,ANAVINGA/ R LISA ANSORGE
-46.67182806959158,-23.6015298218598,"AV. ROUXINOL , 200",AV PINTASSILGO,AV PINTASSILGO
-46.49403781188626,-23.52843662884954,"R. WADIH HATTI , 364",R MARCIANO CAPELLA/ AV ANTONIO DIOGO,MARCIANO CAPELLA/ AV ANTONIO DIOGO
-46.45154929082376,-23.49268866526817,"R. JOÃO JOSÉ RODRIGUES , 31",,
-46.59713066606397,-23.61022356510738,"R. ALENCAR ARARIPE , 336",RUA VISCONDE DE MAGE,UA VISCONDE DE MAGE
-46.44685517006936,-23.53965544175033,"R. SABBADO D'ÂNGELO , 865",R MAJOR AUGUSTO SECKER/ R SAO FRANCISCO DO PIAUI,MAJOR AUGUSTO SECKER/ R SAO FRANCISCO DO PIAUI
-46.46297083239536,-23.59874422502797,"R. FORTE DO TRIUNFO , 120",AV. RAGUEB CHOHFI,AV. RAGUEB CHOHFI
-46.70132218941956,-23.4946483821164,"AV. MIN. PETRÔNIO PORTELA , 471",R JOAO CORDEIRO/ R SEM NOME,JOAO CORDEIRO/ R SEM NOME
-46.4394480234502,-23.60072314774386,"R. DOMINGOS COUTINHO , 313",RUA FRANCOLINO PEREIRA,UA FRANCOLINO PEREIRA
-46.72314723706622,-23.42727574517849,"AV. RAIMUNDO PEREIRA DE MAGALHÃES , 13279",R JOAO GOMES DE MENDONCA/ R MARIA DA CRUZ CUNHA,JOAO GOMES DE MENDONCA/ R MARIA DA CRUZ CUNHA
-46.5732813811904,-23.45975916535268,"R. ABÍLIO PEDRO RAMOS , 772",R JOSE FIGLIOLINI/ R LOPES DA COSTA,JOSE FIGLIOLINI/ R LOPES DA COSTA
-46.70338577898046,-23.60914388041477,"AV. DQA. DE GOIÁS , 235",R PAULO BOURROUL/ R CONDE DE ITAGUAI,PAULO BOURROUL/ R CONDE DE ITAGUAI
-46.76678907808792,-23.65839584854942,"R. TÚLIO MUGNAINI , 66",Av. Carlos Caldeira,Av. Carlos Caldeira
-46.77330791409984,-23.69000672833381,"TERM. JARDIM ÂNGELA , 0",R RIBAS DO RIO PARDO/ R IARIM,RIBAS DO RIO PARDO/ R IARIM
-46.59824121691667,-23.44656729662503,"AV. CEL. SEZEFREDO FAGUNDES , 4198",R SAMANGUAIA/ R DR. AUGUSTO LEFEVRE,SAMANGUAIA/ R DR. AUGUSTO LEFEVRE
-46.66726536822166,-23.52569914497117,"TERM. BARRA FUNDA LADO SUL PLAT. C , 0",AV TOMAS EDSON/ R PEDRO MACHADO,AV TOMAS EDSON/ R PEDRO MACHADO
-46.36661097387918,-23.50186737816039,"AV. KEMEL ADDAS , 1190",R DESEMBARGADOR ISNARD DOS REIS/ R DESEMBARGADOR FAUSTO WHITAKER MACHADO ALVIM,DESEMBARGADOR ISNARD DOS REIS/ R DESEMBARGADOR FAUSTO WHITAKER MACHADO ALVIM
-46.6554205801589,-23.49276825688186,"R. ARMANDO COELHO SILVA , 632",R DR IGNACIO PROENCA DE GOUVEIA/ R VALDEMAR MARTINS,DR IGNACIO PROENCA DE GOUVEIA/ R VALDEMAR MARTINS
-46.58241695790805,-23.56117574009434,"R. DA MOOCA , 4497",R TERESINA/ R NATAL,TERESINA/ R NATAL
-46.59825589304331,-23.54133287447658,"R. S. LEOPOLDO , 490",R VISCONDE DE PARNAIBA/ R CAJURU,VISCONDE DE PARNAIBA/ R CAJURU
-46.6338697263475,-23.50281214950154,"R. DR. CESAR , 850",R EMB. JOAO NEVES DA FONTOURA/ R CARLOS ESCOBAR,EMB. JOAO NEVES DA FONTOURA/ R CARLOS ESCOBAR
-46.75566004677087,-23.69436365728276,"AV. ALEXANDRINA MALISANO DE LIMA , 863",R ARISTIDES VICENZO FABRINI/ R ABRAHIM MALUF,ARISTIDES VICENZO FABRINI/ R ABRAHIM MALUF
-46.65389707723101,-23.64294658599847,"R. TACIBA , 185",R VITORIANA/ R ALMAQUIO DINIS,VITORIANA/ R ALMAQUIO DINIS
-46.42209559675882,-23.47554165669677,"R. EMÍLIO CARDOSO AIRES , 49",AV FELIX NASCENTES PINTO/ R ERVA ANDORINHA,AV FELIX NASCENTES PINTO/ R ERVA ANDORINHA
-46.73492270508452,-23.55387921731063,"AV. ESCOLA POLITÉCNICA , 0",AV KENKITI SIMOMOTO/ AV TORRES DE OLIVEIRA,AV KENKITI SIMOMOTO/ AV TORRES DE OLIVEIRA
-46.57403328213681,-23.48695104623185,"R. JOSÉ ANILDO DA MATA , 223",AV RAMIZ GALVAO/ R JOSE ANILDO DA MATA,AV RAMIZ GALVAO/ R JOSE ANILDO DA MATA
-46.65414002710185,-23.65688852500804,"R. CIDADE DE BAGDÁ , 673",R CHARLES DARWIN / AV SANTA CATARINA,CHARLES DARWIN / AV SANTA CATARINA
-46.68454320905703,-23.52991917658188,"AV. POMPEIA , 655",R MINISTRO FERREIRA ALVES/ R DESEMBARGADOR DO VALE,MINISTRO FERREIRA ALVES/ R DESEMBARGADOR DO VALE
-46.59138927025433,-23.44776727139583,"R. ELIAS DE ALMEIDA , 300",AV JOSINO VIEIRA DE GOES/ R DOMINGOS ALLEMAGNA,AV JOSINO VIEIRA DE GOES/ R DOMINGOS ALLEMAGNA
-46.69596430101885,-23.47513345326147,"AV. MICHIHISA MURATA , 221",R.   JOÃO RODRIGUES CHAVES,JOÃO RODRIGUES CHAVES
-46.52774930872316,-23.59269844061032,"AV. SAPOPEMBA , 7235",R POSIDONIO/ R ANTONIO MUNIZ FAGUNDES,POSIDONIO/ R ANTONIO MUNIZ FAGUNDES
-46.40359344927486,-23.56443820543807,"AV. JOSÉ HIGINO NEVES , 876",R VITALINA MARIA DE JESUS SCHALCH/ R DO CALCIO,VITALINA MARIA DE JESUS SCHALCH/ R DO CALCIO
-46.79305380690315,-23.6732408602145,"R. ANTÔNIO FORLENZA , 7",R VALTER AYROSA FLAQUER / R CAPITAO JOSE CERQUEIRA LEITE,VALTER AYROSA FLAQUER / R CAPITAO JOSE CERQUEIRA LEITE
-46.40259843058708,-23.57235516718491,"AV. CACHOEIRA MORENA , 639",R CACHOEIRA DAS JANGADAS/ R ARROIO PIRAJUI,CACHOEIRA DAS JANGADAS/ R ARROIO PIRAJUI
-46.51404160130823,-23.54088963143682,"R. JOAQUIM MARRA , 2044",R GERALDA MARIA DE JESUS SANTOS/ AV NAPOLEAO,GERALDA MARIA DE JESUS SANTOS/ AV NAPOLEAO
-46.61452007618425,-23.4478363381915,"AV. SEN. JOSÉ ERMÍRIO DE MORAES , 823",R ELIAS DE SOUZA PINTO/ R PASCOAL GOMES DE LIMA,ELIAS DE SOUZA PINTO/ R PASCOAL GOMES DE LIMA
-46.39035069212109,-23.52593733915031,"R. FRANCISCO DE SOUTOMAIOR , 315",R CESARE POLLINI/ R JERONIMO PEDROSO BARROS,CESARE POLLINI/ R JERONIMO PEDROSO BARROS
-46.60253756758188,-23.62566351239786,"R. MQ. DE LAGES , 1640",R MAX BERG/ AV CORONEL JOSE PIRES DE ANDRADE,MAX BERG/ AV CORONEL JOSE PIRES DE ANDRADE
-46.39904670412266,-23.50094347621648,"R. JURARATERÊ , 97",,
-46.47120095875579,-23.54160850373474,"TERM. METRÔ ITAQUERA PL. A , 0",,
-46.70240315673593,-23.50155235459393,"AV. PAULA FERREIRA , 295",R CMTE. FERREIRA CARNEIRO/ R CECILIA DA SILVA,CMTE. FERREIRA CARNEIRO/ R CECILIA DA SILVA
-46.55194607319582,-23.60211546927152,"R. GASPAR BARRETO , 649",R   HERMETO LIMA,HERMETO LIMA
-46.60822352434297,-23.62436453477194,"R. D. VILARES , 1092",R DOMINIQUIN/ R ANGATURAMA,DOMINIQUIN/ R ANGATURAMA
-46.52073957084175,-23.53335068451659,"R. JOAQUIM MARRA , 899",R EDGAR DE AZEVEDO SOARES/ R DOUTOR ARMANDO BRANDAO,EDGAR DE AZEVEDO SOARES/ R DOUTOR ARMANDO BRANDAO
-46.71323090278757,-23.54917817481405,"AV. PROF. FONSECA RODRIGUES , 521",PC PERO VAZ DE CAMINHA/ R OROBO,PC PERO VAZ DE CAMINHA/ R OROBO
-46.6736268289465,-23.66695653756164,"AV. YERVANT KISSAJIKIAN , 539",R ANTONIO GIL/ R VICENTE PEREIRA DE ASSUNCAO,ANTONIO GIL/ R VICENTE PEREIRA DE ASSUNCAO
-46.6108819369682,-23.49755610604534,"AV. GEN. ATALIBA LEONEL , 1973",R   AZIR ANTONIO SALTON/RUA MARCILIO FRANCO,AZIR ANTONIO SALTON/RUA MARCILIO FRANCO
-46.75135310061393,-23.39814495674948,"R. FELIPE CARDOSO DE CAMPOS , 455",R XIMBURETINGA/ R HORACIO CARTIER,XIMBURETINGA/ R HORACIO CARTIER
-46.58372123473075,-23.47703811856626,"AV. JARDIM JAPÃO , 1592",R BASSI/ AV JULIO BUONO,BASSI/ AV JULIO BUONO
-46.43842689242411,-23.6414239634544,"AV. CIDADE DE MAUA , 225",Rua Açucena,ua Açucena
-46.73479508681412,-23.44276071014445,"ESTR. DE TAIPAS , 1495",PASSAGEM UM/ R PHILONILIA GONCALVES DOS SANTOS,PASSAGEM UM/ R PHILONILIA GONCALVES DOS SANTOS
-46.58098627242104,-23.47271212991929,"R. DR. NICOLINO MORENA , 0",R DOUTOR GUILHERME TELES/ R ARANHA DE MENEZES,DOUTOR GUILHERME TELES/ R ARANHA DE MENEZES
-46.59999408799131,-23.48006115234625,"AV. GUAPIRA , 247",AV MTO. VILLA-LOBOS/ R TANQUE VELHO/RUA MAJOR DANTAS COTEZ,AV MTO. VILLA-LOBOS/ R TANQUE VELHO/RUA MAJOR DANTAS COTEZ
-46.65524258996231,-23.49033726717914,"AV. ENG. CAETANO ALVARES , 3209",R ASTURIAS/ R ANTONIO DE SOUZA COSTA -- (nº 3210 OPOSTO),ASTURIAS/ R ANTONIO DE SOUZA COSTA -- (nº 3210 OPOSTO)
-46.62478787502494,-23.48157721762751,"R. SR. DO MONTE , 380",R ANA MARGARIDA LAET/ R ARMANDA,ANA MARGARIDA LAET/ R ARMANDA
-46.71658124478412,-23.44110466456441,"AV. ELÍSIO TEIXEIRA LEITE , 7189",R TUNEIRAS DO OESTE/ R ERASMO BARTOLO,TUNEIRAS DO OESTE/ R ERASMO BARTOLO
-46.5649691894529,-23.53631479992806,"R. DR. ÂNGELO VITA , 303",R. DR. CORINTO BALDOINO COSTA,DR. CORINTO BALDOINO COSTA
-46.62703097111182,-23.44791337415482,"AV. LUIZ CARLOS GENTILE DE LAET , 2250",,
-46.63271619483817,-23.66035444694585,"R. DR. RENÉ FERNANDES , 1",RUA DIÁRIO POPULAR,UA DIÁRIO POPULAR
-46.66649147723896,-23.49575127582554,"R. CAROLINA SOARES , 1021",R ALCIDES ALVES/ R LEONOR BARBOSA RODRIGUES,ALCIDES ALVES/ R LEONOR BARBOSA RODRIGUES
-46.52038043498802,-23.57392350270653,"R. MANUEL FIGUEIREDO , 339",R ANTONIO ACRAS FILHO/ AV AGUIAR DA BEIRA,ANTONIO ACRAS FILHO/ AV AGUIAR DA BEIRA
-46.76999966573368,-23.47982864795608,"ROD. ANHANGUERA , 0",EST TURISTICA DO JARAGUA/ AV JORN. PAULO ZING,EST TURISTICA DO JARAGUA/ AV JORN. PAULO ZING
-46.49242875423004,-23.54925853129401,"AV. ENG. JOÃO BAPTISTA ARANHA , 226",RUA DEJANIRA -- PADARIA ALQUIMAR,UA DEJANIRA -- PADARIA ALQUIMAR
-46.54031143698195,-23.52444478110544,"R. FRANCISCO COIMBRA , 235",,
-46.63706308982491,-23.68021037181729,"R. SEBASTIÃO AFONSO , 897",AL DOUTOR SILVIO DE CAMPOS/ R FRANCISCO DE ALVARENGA,AL DOUTOR SILVIO DE CAMPOS/ R FRANCISCO DE ALVARENGA
-46.68942132642124,-23.7737701126869,"R. MANUEL CANALES , 130",R ESTEVAO BERNARDI/ R DANTE AMBROSIO,ESTEVAO BERNARDI/ R DANTE AMBROSIO
-46.62628078680419,-23.50372912334503,"AV. BRÁZ LEME , 3560",R VOLUNTARIOS DA PATRIA/ PC HEROIS DA FORCA EXPEDICIONARIA BRASILEIRA,VOLUNTARIOS DA PATRIA/ PC HEROIS DA FORCA EXPEDICIONARIA BRASILEIRA
-46.60724344916171,-23.64858242454959,"R. DR. BENEDITO TOLOSA , 426",R MARIA FANTINI GOMIERI/ R FRANCOIS BUNEL,MARIA FANTINI GOMIERI/ R FRANCOIS BUNEL
-46.43132026304955,-23.55067634742344,"AV. PROF. JOÃO BATISTA CONTI , 177",R FRANCESCO CALEGARI/ R ANA MARIA SIRANI,FRANCESCO CALEGARI/ R ANA MARIA SIRANI
-46.47727608913139,-23.48844575881119,"R. DOMINGOS SCARPEL , 79",AV MILENE ELIAS/ PC CEL SATURNINO DE CARVALHO,AV MILENE ELIAS/ PC CEL SATURNINO DE CARVALHO
-46.79377356664243,-23.450734846317,"R. DENIS BREAN (P. MORRO DOCE-ANH) , 252",,
-46.57472022677469,-23.50147598347742,"AV. DAS CEREJEIRAS , 1959",PC TOKIO/ R YAMATO,PC TOKIO/ R YAMATO
-46.56868797232341,-23.59055856945528,"AV. JOSÉ DA NÓBREGA BOTELHO , 28",R CAETANO PIMENTEL DO VABO/ R DOUTORA ESMERALDA MENDES POLICINE,CAETANO PIMENTEL DO VABO/ R DOUTORA ESMERALDA MENDES POLICINE
-46.544053376886,-23.53283475459402,"METRÔ PENHA , 0",METRO PENHA - LADO NORTE,METRO PENHA - LADO NORTE
-46.72145618171831,-23.44763364969183,"AV. RAIMUNDO PEREIRA DE MAGALHÃES , 10680",,
-46.66069962342941,-23.46717038614788,"R. ODASSI NAZZALI , 310",AV PARADA PINTO/ R FERNANDO PESSOA,AV PARADA PINTO/ R FERNANDO PESSOA
-46.70660006448341,-23.51822629278369,"R. SHEELDON , 71",R CLEMENTE ALVARES/ R DRONSFIELD,CLEMENTE ALVARES/ R DRONSFIELD
-46.46066302577848,-23.54791344498329,"R. BENEDITO COELHO NETO , 54",AV ITAQUERA/ R SAO GONCALO DO PIAUI,AV ITAQUERA/ R SAO GONCALO DO PIAUI
-46.39760968881412,-23.50898743604346,"R. ANTÔNIO JOÃO DE MEDEIROS , 785",R GRAMACIO/ R LUZINETE MARIA DA SILVA,GRAMACIO/ R LUZINETE MARIA DA SILVA
-46.57569608505914,-23.5405198124219,"TERM. METRÔ TATUAPÉ (LADO SUL- SHOP. TATUAPÉ) , 0",,
-46.6893508161285,-23.63248173607627,"AV. VER. JOSÉ DINIZ , 1230",R SAO SEBASTIAO/ R JOHN LANE,SAO SEBASTIAO/ R JOHN LANE
-46.67005956229905,-23.75262014891182,"R. CLARISSA , 23",R MARCELINO NOGUEIRA JUNIOR/ R AMAZONAS MARCONDES,MARCELINO NOGUEIRA JUNIOR/ R AMAZONAS MARCONDES
-46.44422713376327,-23.5567473578051,"R. AGRIM. SUGAYA , 134",R IONEJI MATSUBAYASHI/ AV JACU PESSEGO,IONEJI MATSUBAYASHI/ AV JACU PESSEGO
-46.45579716834847,-23.51814056381065,"R. BR. DE CACELA , 7",CONTINUAÇÃO DA RUA RIBEIRÃO JACU - ESQUINA COM A RUA RAINHA DA NOITE,CONTINUAÇÃO DA RUA RIBEIRÃO JACU - ESQUINA COM A RUA RAINHA DA NOITE
-46.49576470238339,-23.55622150994833,"R. QUINTA DA MAGNÓLIA , 25",R VALENCA DO MINHO/ R CASTELO DE PAIVA,VALENCA DO MINHO/ R CASTELO DE PAIVA
-46.55157821306582,-23.5622386455516,"AV. DR. EDUARDO COTCHING , 902",TR MARIO GHIRELLI/ PC SANTO ATANASIO,TR MARIO GHIRELLI/ PC SANTO ATANASIO
-46.54296538631218,-23.53274875181361,"R. ALVINÓPOLIS (METRO PENHA) , 0",R ANTONIO LAMANNA/ R MAJOR ANGELO ZANCHI - METRO PENHA LADO NORTE,ANTONIO LAMANNA/ R MAJOR ANGELO ZANCHI - METRO PENHA LADO NORTE
-46.65823403506909,-23.64462759125085,"R. ALBA , 1051",R PROFESSOR FRANCISCO EMYDIO DA FONSECA TELLES/ R NELSON WASHINGTON PEREIRA,PROFESSOR FRANCISCO EMYDIO DA FONSECA TELLES/ R NELSON WASHINGTON PEREIRA
-46.79560429507561,-23.52550252020441,"C08 COM. SAMPAIO - QUITAÚNA , 5100",AV DOS AUTONOMISTAS,AV DOS AUTONOMISTAS
-46.709589125872,-23.78279913233455,"R. FORTE DE ALCÂNTARA , 31",R FORTE DO GUARA/ R FORTE DO LADARIO,FORTE DO GUARA/ R FORTE DO LADARIO
-46.74764281160486,-23.78143025048666,"AV. JACEGUAVA , 0",EST DO PAIOL/ EST MORRO DO S,EST DO PAIOL/ EST MORRO DO S
-46.68068803384573,-23.59034189732412,"AV. BRIG. FARIA LIMA , 3999",AV PRESIDENTE JUSCELINO KUBITSCHEK/ R MINISTRO JESUINO CARDOSO,AV PRESIDENTE JUSCELINO KUBITSCHEK/ R MINISTRO JESUINO CARDOSO
-46.59557391798501,-23.54061786984839,"R. CAJURU , 863",R SIQUEIRA BUENO/ R SIQUEIRA BUENO,SIQUEIRA BUENO/ R SIQUEIRA BUENO
-46.65002699846743,-23.67517443207374,"R. CATARINA GABRIELI , 540",Rua Pastor Rubens Lopes,ua Pastor Rubens Lopes
-46.65784132537706,-23.56121095981251,"AL. SANTOS , 1767",RUA PEIXOTO GOMIDE - PONTO DE FRETAMENTO,UA PEIXOTO GOMIDE - PONTO DE FRETAMENTO
-46.75718711564527,-23.67077676575876,"R. DEOCLECIANO DE OLIVEIRA FILHO , 892",R DA DANCA CIGANA/ R EMERICO LOBO DE MESQUITA,DA DANCA CIGANA/ R EMERICO LOBO DE MESQUITA
-46.68099941166653,-23.76957010639687,"R. MJ. LÚCIO DIAS RAMOS , 108",RUA PROFº FRANCISCO MARQUES DE OLIVEIRA JR.,UA PROFº FRANCISCO MARQUES DE OLIVEIRA JR.
-46.42002556156981,-23.49099558151176,"R. CONCEIÇÃO DO ALMEIDA , 253",RUA SÃO GONÇALO DO RIO DAS PEDRAS,UA SÃO GONÇALO DO RIO DAS PEDRAS
-46.63629909305352,-23.68113136550519,"R. BALTAZAR GOMES DE ALARCÃO , 10",AV GARCIA DE AVILA/ R JOSE DE AFONSECA,AV GARCIA DE AVILA/ R JOSE DE AFONSECA
-46.76394796760879,-23.40628995707898,"AV. DR. SYLVIO DE CAMPOS , 1009",R ENG. NOGUEIRA SOARES/ R ILHA DOS LOBOS,ENG. NOGUEIRA SOARES/ R ILHA DOS LOBOS
-46.68190239159372,-23.77316709321138,"AV. ADELINA ABRANCHES , 99",R JOSE DIOGO ABADIANO/ AV ADELINA ABRANCHES,JOSE DIOGO ABADIANO/ AV ADELINA ABRANCHES
-46.41082761171378,-23.49898351911427,"R. ARICANGA , 410",OPOSTO A R ANTONIO CAÇÃO,OPOSTO A R ANTONIO CAÇÃO
-46.63482281432167,-23.47473427726615,"AV. ZUMKELLER , 510",R ALVARO GOMES/ R JOSE DANTAS MAGALHAES GLORIA,ALVARO GOMES/ R JOSE DANTAS MAGALHAES GLORIA
-46.66168151850859,-23.49546226311443,"TERM. CASA VERDE , 0",R BARRA DO MENDES/ R DIAS DE OLIVEIRA,BARRA DO MENDES/ R DIAS DE OLIVEIRA
-46.40169070865659,-23.49307951908529,"R. CORDÃO DE SÃO FRANCISCO , 797",AV BRAS DA ROCHA CARDOSO/ R BUITY - EMEF ARMANDO CRIDEY RIGHETTI,AV BRAS DA ROCHA CARDOSO/ R BUITY - EMEF ARMANDO CRIDEY RIGHETTI
-46.70376404177715,-23.82098494725852,"R. DOMÊNICO LANZETTI , 125",R TOMASO BENVENUTI/ R ISABELLA CANALI,TOMASO BENVENUTI/ R ISABELLA CANALI
-46.7066247546102,-23.60834289343455,"R. BR. DO MELGAÇO , 20",R ADALIVIA DE TOLEDO/ R BARAO DE CAMPOS GERAIS,ADALIVIA DE TOLEDO/ R BARAO DE CAMPOS GERAIS
-46.59389756106253,-23.64861438538084,"R. JOSÉ ANTÔNIO VALADARES , 1042",RUA FRANCISCO DA SILVEIRA,UA FRANCISCO DA SILVEIRA
-46.73314133574748,-23.6653587191072,"R. FOZ DO GIRALDO , 160",RUA VICENTE DECARA NETTO/RUA GUILHERME VALENTE,UA VICENTE DECARA NETTO/RUA GUILHERME VALENTE
-46.43414915325217,-23.57583124334843,"R. HIROVO KAMINOBO , 667",RUA GUICHI YOSHIOKA,UA GUICHI YOSHIOKA
-46.59325527852553,-23.44074830813394,"AV. CEL. SEZEFREDO FAGUNDES , 5010",R USHIKICHI KAMIYA/ TR NOSSA SENHORA DA PIEDADE,USHIKICHI KAMIYA/ TR NOSSA SENHORA DA PIEDADE
-46.63790836579619,-23.59807673806991,"R. MACHADO BITTENCOURT , 190",RUA PEDRO DE TOLEDO,UA PEDRO DE TOLEDO
-46.56214222703497,-23.53226380974426,"AV. CELSO GARCIA , 5200",R MIGUEL MOLINA/ R VITORIO RAMALHO,MIGUEL MOLINA/ R VITORIO RAMALHO
-46.47427299044275,-23.5247745878009,"AV. ÁGUIA DE HAIA , 2344",R CUIM/ R TERRA BRASILEIRA,CUIM/ R TERRA BRASILEIRA
-46.72225705052583,-23.48404849016315,"AV. RAIMUNDO PEREIRA DE MAGALHÃES , 5420",AV MIGUEL DE CASTRO/ R MAL. MENDES DE MORAIS,AV MIGUEL DE CASTRO/ R MAL. MENDES DE MORAIS
-46.69626700410792,-23.84982179845568,"ESTR. DA BARRAGEM , 363",R ORLANDO SOLAI/ R MUNICIPAL,ORLANDO SOLAI/ R MUNICIPAL
-46.64241906055489,-23.67567540756793,"AV. STO. AFONSO , 108",R SANTA CRUZ DO RIO PARDO/ AV CUPECE,SANTA CRUZ DO RIO PARDO/ AV CUPECE
-46.55939712776336,-23.56797864278091,"R. BRUNA , 289",R ANDRE SANCHES CUENCA/ R PLACIDO DE CASTRO,ANDRE SANCHES CUENCA/ R PLACIDO DE CASTRO
-46.59848285124979,-23.55297482336294,"R. DOS TRILHOS , 1092",PC MARIA CANDIDA FREITAS DE OLIVEIRA/ R TAQUARI,PC MARIA CANDIDA FREITAS DE OLIVEIRA/ R TAQUARI
-46.64981248693792,-23.53372205847681,"R. DR. CARVALHO DE MENDONCA , 126",R VITORINO CARMILO/ R ADOLFO GORDO,VITORINO CARMILO/ R ADOLFO GORDO
-46.76044040307894,-23.57960617799697,"R. DR. PAULO RIBEIRO COELHO , 532",R TULIO LOMBARDO/ R OLIMPIO NOGUEIRA,TULIO LOMBARDO/ R OLIMPIO NOGUEIRA
-46.63244854626651,-23.55885989619621,"R. CONS. FURTADO , 718",R BARAO DE IGUAPE/ R DA GLORIA,BARAO DE IGUAPE/ R DA GLORIA
-46.58953296415856,-23.5419298464242,"TERM. METRÔ BELÉM (LADO NORTE) , 0",R DOUTOR CLEMENTINO/ R FERNANDES VIEIRA,DOUTOR CLEMENTINO/ R FERNANDES VIEIRA
-46.69299860310844,-23.68531151325984,"AV. INTERLAGOS , 4440",R MIGUEL YUNES/ R RIO PARAGUACU,MIGUEL YUNES/ R RIO PARAGUACU
-46.70516318016741,-23.48795942302023,"R. RIO VERDE , 1125",R HELENA GAMBINI/ R DR. MANOEL GUILHERME DA SILVEIRA,HELENA GAMBINI/ R DR. MANOEL GUILHERME DA SILVEIRA
-46.6347684134038,-23.59188675635873,"R. AFONSO CELSO , 123",R ALBERTO AFONSO MARTINS/ R CONDE DE IRAJA,ALBERTO AFONSO MARTINS/ R CONDE DE IRAJA
-46.749690063136,-23.41321488485319,"R. RECANTO DOS HUMILDES , 2",TV DO GIRASSOL/ TV DAS CAMELIAS,TV DO GIRASSOL/ TV DAS CAMELIAS
-46.3975916109143,-23.53188533353451,"ESTR. D. JOÃO NERI , 175",R MARIA BERNARDES/ R FELIPE FERNANDES,MARIA BERNARDES/ R FELIPE FERNANDES
-46.69712178963661,-23.62127980838216,"AV. ROQUE PETRONI JÚNIOR , 0",R BACAETAVA/ AV DOUTOR CHUCRI ZAIDAN,BACAETAVA/ AV DOUTOR CHUCRI ZAIDAN
-46.42199711695847,-23.61628002760609,"ESTR. DO FIDELIS , 1355",,
-46.49315494350709,-23.49204278878073,"R. CAIÇARA DO RIO DO VENTO , 527",R BARRA DE SANTA ROSA/ R PINDAI,BARRA DE SANTA ROSA/ R PINDAI
-46.44575488818463,-23.62469805928324,"AV. DOS SERTANISTAS , 158",RUA AFONSO FURTADO DE CASTRO,UA AFONSO FURTADO DE CASTRO
-46.63522258142427,-23.54182697995287,"PÇA. DO CORREIO , 0",RUA BRG. TOBIAS,UA BRG. TOBIAS
-46.70581219586647,-23.48178345235518,"R. PE. FELICIANO DOMINGUES , 450",TV JACINTO MEDEA/ TV CARMEN JONES,TV JACINTO MEDEA/ TV CARMEN JONES
-46.68307815526492,-23.54917708683487,"R. HEITOR PENTEADO , 421",R FREI IGNACIO GAU/ R MIRANDA MONTENEGRO,FREI IGNACIO GAU/ R MIRANDA MONTENEGRO
-46.47533500737446,-23.51720062470486,"TERM. A. E. CARVALHO , 0",AV DO IMPERADOR/ TR VITORIA SILVA SANTOS,AV DO IMPERADOR/ TR VITORIA SILVA SANTOS
-46.55111023429098,-23.55718966666146,"R. CURUPÁ , 254",R DOS POVOADORES/ R GUAXUPE,DOS POVOADORES/ R GUAXUPE
-46.62558294385129,-23.45946331846407,"R. MAMUD RAHD , 196",R ICAMAQUA/ R FRANCISCO NARCIZO,ICAMAQUA/ R FRANCISCO NARCIZO
-46.64911213350609,-23.63826159273908,"AV. GEN. VALDOMIRO DE LIMA , 1001",R DAS OITICICAS/ R DAS AROEIRAS,DAS OITICICAS/ R DAS AROEIRAS
-46.49091452830281,-23.61890421667115,"R. CLÊNIO WANDERLEY , 215",Travessa Hilarion Quintana,Travessa Hilarion Quintana
-46.65049963328116,-23.48928625806004,"AV. IMIRIM , 1927",R LUIS CARDAMONE/ R IBIRATINGA,LUIS CARDAMONE/ R IBIRATINGA
-46.69082229455391,-23.779557091333,"AV. PAULO GUILGUER REIMBERG , 3115",AV. CARLOS ALBERTO BASTOS MACHADO - SENTIDO B/C,AV. CARLOS ALBERTO BASTOS MACHADO - SENTIDO B/C
-46.69077934292035,-23.76574315203226,"R. MJ. LÚCIO DIAS RAMOS , 262",R DOUTOR LEAO DE ARAUJO NOVAES/ R CORONEL JOAO CABANAS,DOUTOR LEAO DE ARAUJO NOVAES/ R CORONEL JOAO CABANAS
-46.44780797591226,-23.59407420171008,"AV. RAGUEB CHOHFI , 3797",,
-46.6669723952603,-23.51852317600012,"AV. ORDEM E PROGRESSO , 95",R HELIO DE BARROS/ AV MARQUES DE SAO VICENTE,HELIO DE BARROS/ AV MARQUES DE SAO VICENTE
-46.74856818802485,-23.67071574073109,"R. MANOEL VIEIRA SARMENTO , 15",R ANTONIO SARAIVA/ R HUMBERTO DE ALMEIDA,ANTONIO SARAIVA/ R HUMBERTO DE ALMEIDA
-46.47021796758076,-23.54144350161567,"TERM. METRÔ ITAQUERA PL. A , 0",,
-46.65637857596864,-23.49164726465564,"AV. ENG. CAETANO ALVARES , 3054",R ERNANI SALOMAO ROSAS RIBEIRO/ R VALDEMAR MARTINS,ERNANI SALOMAO ROSAS RIBEIRO/ R VALDEMAR MARTINS
-46.51218939213278,-23.60648533393217,"R. RIO HIPIANGUI , 340",VEL DOIS/ R DOUTOR FREDERICO MARTINS DA COSTA CARVALHO,VEL DOIS/ R DOUTOR FREDERICO MARTINS DA COSTA CARVALHO
-46.79748455391968,-23.44539088084212,"R. EDUARDO GRUSIUS , 405",R RAMOS MEJIA/ R MILTON SIQUEIRA,RAMOS MEJIA/ R MILTON SIQUEIRA
-46.72749213740019,-23.44582967526376,"ESTR. DO CORREDOR , 672",VEL TRES/ R SEM DENOMINACAO,VEL TRES/ R SEM DENOMINACAO
-46.5477501347593,-23.59444549113305,"PÇA. S. LUCAS , 0",Rua Dep. Menezes Cortes,ua Dep. Menezes Cortes
-46.57757733028752,-23.46412515833307,"R. THOMAZ CYRO POZZI , 764",R IMA.  EMERENCIANA,IMA.  EMERENCIANA
-46.52913834275282,-23.57937350394784,"R. JOAQUIM PEIXOTO , 139",R CONSTANTINO FUSCO/ R IRINEU VILA NOVA,CONSTANTINO FUSCO/ R IRINEU VILA NOVA
-46.70311001976893,-23.53978218695192,"R. CERRO CORA , 670",R SEBASTIAO CALEIRO/ R PEDRO DE SOUSA CAMPOS FILHO,SEBASTIAO CALEIRO/ R PEDRO DE SOUSA CAMPOS FILHO
-46.37590192277516,-23.4939094407114,"R. MANOEL LEMES DA SILVA , 0",R MAXIMIANO CORREA DOS SANTOS/ R SGACO,MAXIMIANO CORREA DOS SANTOS/ R SGACO
-46.74897414450089,-23.6823106907814,"ESTR. DA RIVIERA , 850",RUA JOÃO FALCÃO/RUA DOMINGOS FURTADO,UA JOÃO FALCÃO/RUA DOMINGOS FURTADO
-46.66864856288681,-23.75586213047109,"AV. DA. BELMIRA MARIN , 5050",R CLARISSA/ R PEDRO ESCOBAR,CLARISSA/ R PEDRO ESCOBAR
-46.75264649836186,-23.57086819386967,"AV. JOSÉ JOAQUIM SEABRA , 856",RUA AMICO ASPERTINI,UA AMICO ASPERTINI
-46.69412961122678,-23.68022253905109,"AV. DAS NAÇÕES UNIDAS , 22013",R JAIME DE OLIVEIRA SOUZA/ R ARNALDO MAGNICCARO,JAIME DE OLIVEIRA SOUZA/ R ARNALDO MAGNICCARO
-46.64220132594438,-23.59919874563201,"R. LOEFGREEN , 1764",R BOTUCATU/ R TRES DE MAIO,BOTUCATU/ R TRES DE MAIO
-46.71385330724319,-23.42948770833515,"AV. FERNANDO MENDES DE ALMEIDA , 875",R PALACIO GUANABARA,PALACIO GUANABARA
-46.55413207279829,-23.59688549889207,"R. COSTA BARROS , 1257",R PRINCIPE DA BEIRA/ R SAO CARLOS BORROMEU,PRINCIPE DA BEIRA/ R SAO CARLOS BORROMEU
-46.59124073992387,-23.60311457947075,"AV. CARIOCA , 85",RUA LÍCIO DE MIRANDA,UA LÍCIO DE MIRANDA
-46.72872655643184,-23.61214194129944,"AV. GIOVANNI GRONCHI , 3567",R MAJOR JOSE MARIOTO FERREIRA/ R MANOEL ANTONIO PINTO,MAJOR JOSE MARIOTO FERREIRA/ R MANOEL ANTONIO PINTO
-46.47932065676306,-23.60987322307766,"R. MTO. JOÃO BALAM , 0",R. FÉLICE BUSCÁGLIA,FÉLICE BUSCÁGLIA
-46.71042056700672,-23.65351370480017,"TERM. STO. AMARO , 0",TR JURCI SOARES SEBASTIAO/ R HUMBOLDT,TR JURCI SOARES SEBASTIAO/ R HUMBOLDT
-46.67854046729172,-23.46915342918516,"AV. PE. ORLANDO GARCIA DA SILVEIRA , 499",R HUGO VAN DER GOES/ R JULES DALOU,HUGO VAN DER GOES/ R JULES DALOU
-46.74987085758622,-23.76284533876129,"AV. PROF. HERMANN VON IHERING , 0",EST DO JACEGUAY/ R ALBERTO MAZZUCATO,EST DO JACEGUAY/ R ALBERTO MAZZUCATO
-46.69868212568538,-23.51970726313113,"TERM. LAPA , 0",,
-46.71036199788465,-23.52846625830716,"R. PIO XI , 571",VEL MARIA CANDIDA VIADANA/ R PIRAI,VEL MARIA CANDIDA VIADANA/ R PIRAI
-46.68399979744974,-23.65089463896719,"AV. WASHINGTON LUIZ , 2312",R UTINGA/ R LAVINIA FENTON,UTINGA/ R LAVINIA FENTON
-46.44111922325691,-23.53820243158779,"R. PROF. LEONÍDIO ALLEGRETI , 882",RUA ANTONIO GANDINI,UA ANTONIO GANDINI
-46.77319997270094,-23.6733458014422,"AV. COM. SANT'ANNA , 848",R PROFESSOR ANTONIO AUSTREGESILO/ R MARCO BASAITI,PROFESSOR ANTONIO AUSTREGESILO/ R MARCO BASAITI
-46.77557907313091,-23.63854696191113,"R. JOSÉ CABRAL , 210",R JANUARIO DA CUNHA BARBOSA/ R HERMES RIBEIRO DE FREITAS,JANUARIO DA CUNHA BARBOSA/ R HERMES RIBEIRO DE FREITAS
-46.49203773873268,-23.55474950567373,"R. BRASILINA ILKA BARBOSA FERRAZ , 53",R FIRMINO MORGADO/ R ZELIA FRIAS STREET,FIRMINO MORGADO/ R ZELIA FRIAS STREET
-46.74732574742752,-23.51131444218654,"R. CUSTÓDIO SERRÃO , 876",R CUSTODIO SERRAO/ R PAUVA,CUSTODIO SERRAO/ R PAUVA
-46.58645597352418,-23.54673081610668,"R. SERRA DE JAIRÉ , 542",R UBAJARA/ R SERRA DA BOCAINA,UBAJARA/ R SERRA DA BOCAINA
-46.71055756543759,-23.65363570466264,"TERM. STO. AMARO , 0",TR JURCI SOARES SEBASTIAO/ R HUMBOLDT,TR JURCI SOARES SEBASTIAO/ R HUMBOLDT
-46.68815554108008,-23.71496236816765,"R. FRUTUOSO BARBOSA , 318",R ANTONIO ALVARES DA SILVA/ R FRANCISCO DE CALDAS,ANTONIO ALVARES DA SILVA/ R FRANCISCO DE CALDAS
-46.72413105407649,-23.7683812386,"R. DUARTE ANTÔNIO MOURÃO , 31",R BALNEARIO SAO JOSE/ R QUATRO,BALNEARIO SAO JOSE/ R QUATRO
-46.65133134970758,-23.57001390175215,"AV. BRIG. LUÍS ANTÔNIO , 2701",AL FERNAO CARDIM/ AL SARUTAIA,AL FERNAO CARDIM/ AL SARUTAIA
-46.58241229635468,-23.46218818100466,"AV. ANTÔNIO CESAR NETO , 221",R DOUTOR JOSE SALUSTIANO FILHO/PRAÇA MEMORIAL DO JAÇANÃ,DOUTOR JOSE SALUSTIANO FILHO/PRAÇA MEMORIAL DO JAÇANÃ
-46.69234964514344,-23.67472755810237,"R. ARNALDO MAGNICCARO , 522",R TAQUAPACA/ R AGOSTINHO TOGNERI,TAQUAPACA/ R AGOSTINHO TOGNERI
-46.61549277033961,-23.53495995301065,"R. SILVA TELES , 99",R JOAO TEODORO/ R CASIMIRO DE ABREU,JOAO TEODORO/ R CASIMIRO DE ABREU
-46.6962518194828,-23.61473383480499,"AV. DR. CHUCRI ZAIDAN , 0",AV JORNALISTA ROBERTO MARINHO/ R EVANDRO CARLOS DE ANDRADE,AV JORNALISTA ROBERTO MARINHO/ R EVANDRO CARLOS DE ANDRADE
-46.5249955569412,-23.52696372536243,"R. EVANS , 556",R ANTONIO VICENTE DE PAULA/ R DEZENOVE DE MAIO,ANTONIO VICENTE DE PAULA/ R DEZENOVE DE MAIO
-46.72089720037037,-23.4435406662721,"AC. ACESSO , 0",AV. RAIMUNDO PEREIRA DE MAGALHÃES X AV. NELSON PALMA TRAVASSOS,AV. RAIMUNDO PEREIRA DE MAGALHÃES X AV. NELSON PALMA TRAVASSOS
-46.64370647927529,-23.55088096445587,"R. STO. ANTÔNIO , 594",R CONSELHEIRO RAMALHO/ R MAJOR DIOGO,CONSELHEIRO RAMALHO/ R MAJOR DIOGO
-46.59598595476692,-23.52886592333663,"AV. CDSSA. ELISABETH DE ROBIANO , 0",R JUVENAL GOMES COIMBRA/ PTE PRESIDENTE JANIO QUADROS,JUVENAL GOMES COIMBRA/ PTE PRESIDENTE JANIO QUADROS
-46.40995866150962,-23.48650257247629,"R. CACHOEIRA ITAGUASSAVA , 730",RUA SALSA PARRILHA,UA SALSA PARRILHA
-46.51506858274446,-23.54379562146858,"R. PARANHOS , 333",AV VALDEMAR CARLOS PEREIRA/ R GREGORIO SOUZA,AV VALDEMAR CARLOS PEREIRA/ R GREGORIO SOUZA
-46.70985057018316,-23.6539767010839,"M05 SANTO AMARO - LGO. TREZE , 0",,
-46.71582913165675,-23.76608622425448,"TERM. VARGINHA , 0",AV PAULO GUILGUER REIMBERG/ R RUBEN DARIO,AV PAULO GUILGUER REIMBERG/ R RUBEN DARIO
-46.48496761008619,-23.6096412405622,"AV. SAPOPEMBA , 12727",AV TENENTE LAURO SODRE/ R EDUARDO ANTONIO DE PAULA,AV TENENTE LAURO SODRE/ R EDUARDO ANTONIO DE PAULA
-46.56176109431787,-23.57194663201643,"R. DR. GABRIEL DE RESENDE , 453",AV LUCA/ R PADRE MAURICIO,AV LUCA/ R PADRE MAURICIO
-46.70883986421645,-23.57110306481668,"TERM. METRÔ BUTANTÃ , 0",,
-46.57541599067594,-23.5687516860084,"R. CORUMBAÍBA , 481",R ACARAICA/ R FAROL PAULISTANO,ACARAICA/ R FAROL PAULISTANO
-46.44764889443896,-23.61823109360328,"AV. NOVA CONQUISTA , 259",Rua Israel,ua Israel
-46.71411841779158,-23.68771356462633,"AV. ATLÂNTICA , 2449",AV PASCOAL DA ROCHA FALCAO/ R RIMINI,AV PASCOAL DA ROCHA FALCAO/ R RIMINI
-46.54234931543087,-23.55497165103604,"R. LUTÉCIA , 0",R GERALDO CORREA/ R LOBO,GERALDO CORREA/ R LOBO
-46.69669539451309,-23.7365872978946,"TERM. GRAJAÚ , 0",R ALEXANDER BORODIN/ R FRANCESCO GEMINIANI,ALEXANDER BORODIN/ R FRANCESCO GEMINIANI
-46.71864817135441,-23.45754259746126,"AV. RAIMUNDO PEREIRA DE MAGALHÃES , 9684",R ROBERTO CORREIA/ R AGOSTINHO ANGOLA,ROBERTO CORREIA/ R AGOSTINHO ANGOLA
-46.66209562839785,-23.46229241192194,"R. KOSHUN TAKARA , 105",,
-46.75772565982953,-23.51149547171451,"R. ADÃO GONÇALVES , 531",R CANASTRA/ R DR CABRAL VASCONCELOS,CANASTRA/ R DR CABRAL VASCONCELOS
-46.63005143652838,-23.5966657213856,"R. STA. CRUZ , 622",Rua Bittencourt Sampaio,ua Bittencourt Sampaio
-46.64229681240045,-23.45695737816686,"R. RAUL BISPO DOS SANTOS , 0",Av. Jose da Rocha Viana,Av. Jose da Rocha Viana
-46.68268142504696,-23.47137243135394,"R. CAIAPÉ , 0",AV PE. ORLANDO GARCIA DA SILVEIRA/ R AMAURI DE MEDEIROS,AV PE. ORLANDO GARCIA DA SILVEIRA/ R AMAURI DE MEDEIROS
-46.69121442252033,-23.45120454589924,"R. IBIRAIARAS , 862",ACESSO A/ R MATIMPERERE,ACESSO A/ R MATIMPERERE
-46.69724408589334,-23.53482319184529,"R. AURÉLIA , 1533",R JAMIL SAFADY/ R BENTO VIEIRA DE BARROS,JAMIL SAFADY/ R BENTO VIEIRA DE BARROS
-46.66152147696062,-23.50799620691531,"R. REIMS , 56",R RELIQUIA/ R DR. BRITO FRANCO,RELIQUIA/ R DR. BRITO FRANCO
-46.79514056711822,-23.73733058428485,"R. DAS MARGARIDAS AMARELAS , 101",EST PLINIO DIAS/ R JOSE CORFINI,EST PLINIO DIAS/ R JOSE CORFINI
-46.76436188117388,-23.72110656506812,"AV. TAQUANDAVA , 338",R   ITRAPOA,ITRAPOA
-46.60514884759776,-23.53772491059472,"R. JÚLIO CESAR DA SILVA , 72",,
-46.69771618183646,-23.50567832261513,"R. LEO RIBEIRO DE MORAES , 0",AV OTAVIANO ALVES DE LIMA/ R DA BALSA,AV OTAVIANO ALVES DE LIMA/ R DA BALSA
-46.72878711511462,-23.44918366411455,"R. JACINTHO PEREIRA , 570",R JACOB CORTEZ/ VEL DEZESSETE - número 570B,JACOB CORTEZ/ VEL DEZESSETE - número 570B
-46.6558609819118,-23.66579949062776,"AV. CUPECE , 3030",R EDUARDO DE SA/ R PROFESSOR PAULO MANGABEIRA ALBERNAZ,EDUARDO DE SA/ R PROFESSOR PAULO MANGABEIRA ALBERNAZ
-46.5824119936596,-23.55075578642579,"R. SERRA DE JAIRÉ , 1063",R MANUEL PEREIRA LOBO/ R ITAQUERI,MANUEL PEREIRA LOBO/ R ITAQUERI
-46.50174085823169,-23.49590679642681,"R. CARANDAZAL , 84",R PALHANO/ R JOSE PALOMINO,PALHANO/ R JOSE PALOMINO
-46.67040655776378,-23.75308814786884,"R. SEBASTIÃO FERNANDES CAMACHO , 0",R ANTONIO LOPES DE MEDEIROS/ R FRANCISCO CORREA DE LEMOS,ANTONIO LOPES DE MEDEIROS/ R FRANCISCO CORREA DE LEMOS
-46.60457910136,-23.46488223332536,"AV. PROFA. VIRGILIA RODRIGUES ALVES DE CARVALHO PIN , 0",R PROFESSOR ARTUR DE CAMPOS GONCALVES/ R ALCINDO BUENO DE ASSIS,PROFESSOR ARTUR DE CAMPOS GONCALVES/ R ALCINDO BUENO DE ASSIS
-46.69491428743637,-23.48167542112026,"AV. MIN. PETRÔNIO PORTELA , 0",R THEREZINHA DI SPAGNA LOBO/ R MARILANDIA,THEREZINHA DI SPAGNA LOBO/ R MARILANDIA
-46.7344322143141,-23.40627887141455,"AV. RAIMUNDO PEREIRA DE MAGALHÃES , 16380",APÓS ACESSO Á ESQUERDA PARA A R. ERNESTO BOTTONI,APÓS ACESSO Á ESQUERDA PARA A R. ERNESTO BOTTONI
-46.78475366218549,-23.44483084627198,"R. LUÍSA MARIA ROSA , 306",R SEM NOME/ R SEM NOME,SEM NOME/ R SEM NOME
-46.5989457583934,-23.57891470942395,"AV. DO ESTADO , 3009",R GUEMBE/ R CAPITAO PACHECO E CHAVES,GUEMBE/ R CAPITAO PACHECO E CHAVES
-46.4864869325741,-23.51166668178391,"R. DA PONTE RASA , 455",R   PADRE JOÃO DE CASTRO E COSTA / R JOSÉ ASSUNÇÃO DOS ANJOS,PADRE JOÃO DE CASTRO E COSTA / R JOSÉ ASSUNÇÃO DOS ANJOS
-46.49309353783786,-23.61079025912584,"R. MANOEL FRANCA DOS SANTOS , 0",R FRANCISCO BARROSO/ R JOAO LOPES DE LIMA,FRANCISCO BARROSO/ R JOAO LOPES DE LIMA
-46.68113214450327,-23.55706004618356,"R. CARD. ARCOVERDE , 950",PC BENEDITO CALIXTO/ R HENRIQUE SCHAUMANN,PC BENEDITO CALIXTO/ R HENRIQUE SCHAUMANN
-46.60080182512997,-23.55492082146654,"R. DA MOOCA , 2453",AV PAES DE BARROS/ R IOLANDA,AV PAES DE BARROS/ R IOLANDA
-46.44041223069009,-23.53776643148306,"R. ANTÔNIO GANDINI , 731",RUA ANTONIO FONTANA / RUA LEONÍDIO ALLEGRETTI,UA ANTONIO FONTANA / RUA LEONÍDIO ALLEGRETTI
-46.58828839008619,-23.42020238548247,"AV. CEL. SEZEFREDO FAGUNDES , 8513",R DA AMPLIDAO/ R CLOVIS SALGADO,DA AMPLIDAO/ R CLOVIS SALGADO
-46.61052368372044,-23.57237677222896,"AV. D. PEDRO I - PISTA CENTRAL , 840",,
-46.52976561787614,-23.49739787110027,"R. ARAMANDAIA , 21",UBS JD. SÃO FRANCISCO,UBS JD. SÃO FRANCISCO
-46.61999342352332,-23.62496756649238,"R. DR. MÁRIO SETZER , 6",R DOUTOR NESTOR ALBERTO DE MACEDO/ AV DO CURSINO,DOUTOR NESTOR ALBERTO DE MACEDO/ AV DO CURSINO
-46.67246037408385,-23.51128622414236,"AV. PROF. CELESTINO BOURROUL , 210",R DOVERLANDIA/ AV OTAVIANO ALVES DE LIMA,DOVERLANDIA/ AV OTAVIANO ALVES DE LIMA
-46.48672567500372,-23.58639934917371,"AV. ARICANDUVA , 8140",R PACHECO GATO/ R CRISTOVAO DE OLIVEIRA,PACHECO GATO/ R CRISTOVAO DE OLIVEIRA
-46.51868065176135,-23.51472876158449,"AV. D. HELDER CÂMARA , 113",R JOAQUIM DE ORNELAS/ AV SAO MIGUEL/ AUTO SHOPPING CRISTAL,JOAQUIM DE ORNELAS/ AV SAO MIGUEL/ AUTO SHOPPING CRISTAL
-46.4644358151716,-23.60017522291751,"R. FORTE CANANEIA , 201",R FORTE DO TRIUNFO/ AV FORTE DO LEME,FORTE DO TRIUNFO/ AV FORTE DO LEME
-46.52216347459513,-23.55798757886544,"TERM. VILA CARRÃO , 0",R EVANGELINA DE ASSIS/ AV DEZENOVE DE JANEIRO,EVANGELINA DE ASSIS/ AV DEZENOVE DE JANEIRO
-46.70949491444942,-23.55488913858992,"AV. PROF. MANOEL JOSÉ CHAVES , 266",R BANIBAS/ R DESEMBARGADOR JOAQUIM BARBOSA DE ALMEIDA,BANIBAS/ R DESEMBARGADOR JOAQUIM BARBOSA DE ALMEIDA
-46.69491037657331,-23.74607225084371,"AV. ANTÔNIO CARLOS BENJAMIM DOS SANTOS , 335",R LISTER/ R IRINA MILCHEV STARBULOV,LISTER/ R IRINA MILCHEV STARBULOV
-46.71253929336682,-23.72745138473641,"R. PROF. ENÉAS DE SIQUEIRA NETO , 224",R JOSE SOLANA/ R NICOLO SALVI,JOSE SOLANA/ R NICOLO SALVI
-46.52225965458562,-23.50510181493092,"AV. DR. SALOMÃO DE VASCONCELOS , 61",R PIMENTA DE MOURA/ AV CANGAIBA,PIMENTA DE MOURA/ AV CANGAIBA
-46.64892511448964,-23.64423256575553,"R. JURUPARI , 241",Rua Barrania,ua Barrania
-46.48391592522997,-23.5201456364625,"PÇA. AIRES DE SOUSA , 1050",RUA GERALDO PIMENTEL DIAS,UA GERALDO PIMENTEL DIAS
-46.71557581432398,-23.56921109287592,"AV. CORIFEU DE AZEVEDO MARQUES , 149",R DR  UBIRAJARA DIB ZOGAIB,DR  UBIRAJARA DIB ZOGAIB
-46.63071487689413,-23.46648630207225,"AV. STA. INÊS , 0","50 metros após a esquina com a R. LUIZ CARLOS GENTILE DE LAET, sentido c/b","50 metros após a esquina com a R. LUIZ CARLOS GENTILE DE LAET, sentido c/b"
-46.79373511905716,-23.58121426830052,"AV. DR. KENKITI SHIMOMOTO , 0",R GABRIEL DE AMORIM/ R CANDIDO FONTOURA,GABRIEL DE AMORIM/ R CANDIDO FONTOURA
-46.44095487633412,-23.63991497754049,"AV. DOS JASMINS , 170",,
-46.57338136492081,-23.46428614544012,"R. LOPES DA COSTA , 600",R BURACICA/ R BAIA DOS PASSAROS,BURACICA/ R BAIA DOS PASSAROS
-46.39694550525969,-23.56442618618781,"R. AUGUSTO ALFREDO JOAQUIM , 27",R JORGE MARACCINI PONFILIO/ R PROFESSOR DEMO GHIDELLI,JORGE MARACCINI PONFILIO/ R PROFESSOR DEMO GHIDELLI
-46.67694747827797,-23.76017813585457,"R. TERESA FARIAS ISASSI , 12",R FRANCESCA BAITELLI/ R PROFESSOR AURELIO ARROBAS MARTINS,FRANCESCA BAITELLI/ R PROFESSOR AURELIO ARROBAS MARTINS
-46.50120478696827,-23.51810769575648,"R. CEL. PAULO MARIANO , 188",Rua Itapiruçu,ua Itapiruçu
-46.64024009549843,-23.67084942253343,"R. ROLANDO CURTI , 315",,
-46.61631888094096,-23.50061510823336,"R. DUARTE DE AZEVEDO , 912",R MIMOSO DO SUL/ PC ORLANDO SILVA,MIMOSO DO SUL/ PC ORLANDO SILVA
-46.57828509669562,-23.5307748633346,"R. JACIRENDI , 412",,
-46.63355272819307,-23.50304914752478,"AV. BRÁZ LEME , 2595",PC TEN-CEL. HELEUSES NOGUEIRA/ R DR. CESAR,PC TEN-CEL. HELEUSES NOGUEIRA/ R DR. CESAR
-46.61971052925113,-23.59491969894297,"R. NOVA LOUZA , 117",R SAIOA/ R VERGUEIRO,SAIOA/ R VERGUEIRO
-46.79829754316198,-23.44655087805979,"R. EDUARDO GRUSIUS , 181",R VITORIO TRENTO/ R ROBERTO DONAT,VITORIO TRENTO/ R ROBERTO DONAT
-46.60985096452404,-23.49202112769883,"R. PAULO AVELAR , 15",R ESTEFANIA LOURO,ESTEFANIA LOURO
-46.55967516720849,-23.5557866978397,"R. ELEONORA CINTRA , 530",R JOSE ALEXANDRE ALMEIDA LUIZ/ R CANUTO ABREU,JOSE ALEXANDRE ALMEIDA LUIZ/ R CANUTO ABREU
-46.48107775216123,-23.57773337134694,"AV. MARIA LUIZA AMERICANO , 120",VEL QUARENTA E CINCO/ AV AFONSO DE SAMPAIO E SOUZA,VEL QUARENTA E CINCO/ AV AFONSO DE SAMPAIO E SOUZA
-46.50727662791935,-23.54972057240219,"R. UXI , 14",R TIMBE/ R TAPAIUNA,TIMBE/ R TAPAIUNA
-46.5604300721608,-23.58166458492035,"AV. PROF. LUIZ IGNÁCIO ANHAIA MELLO , 0",R NUPEBA/ R ISAQUE VALADAO DE FREITAS,NUPEBA/ R ISAQUE VALADAO DE FREITAS
-46.50652581797932,-23.49592881021147,"R. OLHO D'ÁGUA DO BORGES , 200",RUA LAURO FREITAS,UA LAURO FREITAS
-46.66736360708463,-23.45561645695374,"R. MIN. LINS DE BARROS , 607",R DOUTOR FRANCISCO EUGENIO DO AMARAL/ R GERVASIO LEITE REBELO,DOUTOR FRANCISCO EUGENIO DO AMARAL/ R GERVASIO LEITE REBELO
-46.76167213566391,-23.65413185234861,"TERM. CAPELINHA - PLAT. 3 , 0",R JOAO FRANCISCO DELMAS/ AV CARLOS CALDEIRA FILHO,JOAO FRANCISCO DELMAS/ AV CARLOS CALDEIRA FILHO
-46.63714403121067,-23.69697529792222,"R. CARDOSO DE MELO NETO , 1000",,
-46.69661339795125,-23.73579430114902,"C09 PRIMAVERA-INTERLAGOS - GRAJAÚ , 0",,
-46.79142964031799,-23.43491190974855,"ESTR. CEL. JOSÉ GLADIADOR , 262",R. DELSUC ALVES DE MAGALHÃES,DELSUC ALVES DE MAGALHÃES
-46.52601854017622,-23.52935571767074,"R. CUMAI , 127",R EVANS/ VDTO DONA MATILDE,EVANS/ VDTO DONA MATILDE
-46.7840199937102,-23.64109097544193,"AV. AUGUSTO BARBOSA TAVARES , 403",R MANUEL DIAS DE ABREU/ R ANTONIO BIBIENA,MANUEL DIAS DE ABREU/ R ANTONIO BIBIENA
-46.67816249474399,-23.7524981732747,"R. STO. ANTONIO DE OSSELA , 726",AV. DONA BELMIRA MARIN,AV. DONA BELMIRA MARIN
-46.41840331893243,-23.56611624095751,"R. JOFRE SOARES , 0",R ANTONIO GILBERTO PORFIRIO AGEPE/ R FLORESTA AMAZONICA,ANTONIO GILBERTO PORFIRIO AGEPE/ R FLORESTA AMAZONICA
-46.69341570217442,-23.65563364560007,"AV. WASHINGTON LUIZ , 1277",R ALVARES DE AZEVEDO/ R OLAVO BILAC,ALVARES DE AZEVEDO/ R OLAVO BILAC
-46.71835990821805,-23.53509025225121,"PÇA. FERNANDO PACHECO DE CASTRO , 56",R BARBALHA/ AV DIOGENES RIBEIRO DE LIMA,BARBALHA/ AV DIOGENES RIBEIRO DE LIMA
-46.50837955027227,-23.56969748659516,"AV. INCONFIDÊNCIA MINEIRA , 2050",R ENGENHEIRO GUILHERME CRISTIANO FRENDER/ AV RIO DAS PEDRAS,ENGENHEIRO GUILHERME CRISTIANO FRENDER/ AV RIO DAS PEDRAS
-46.65142571843796,-23.46208838182799,"AV. PERI RONCHETTI , 600",R PROFESSOR MONTEIRO DE CAMARGO/ R SENADOR LAMEIRA BITTENCOURT,PROFESSOR MONTEIRO DE CAMARGO/ R SENADOR LAMEIRA BITTENCOURT
-46.64181752061238,-23.54344299199013,"AV. IPIRANGA , 0",RUA BARÃO DE ITAPETININGA,UA BARÃO DE ITAPETININGA
-46.7083789563146,-23.54541817732649,"R. JAPIAÇÓIA , 0",R DOUTOR LUIS AUGUSTO DE QUEIROS ARANHA/ R DOUTOR ALBERTO SEABRA,DOUTOR LUIS AUGUSTO DE QUEIROS ARANHA/ R DOUTOR ALBERTO SEABRA
-46.6902349731774,-23.584727950094,"AV. DAS NAÇÕES UNIDAS , 9113",R PROFESSOR ARTUR RAMOS/ AV CIDADE JARDIM,PROFESSOR ARTUR RAMOS/ AV CIDADE JARDIM
-46.67690462280667,-23.7186063190494,"R. AUGUSTO FELIPE SIMÕES , 69",R MORGADO DE SETUBAL/ R JOSE FRANCISCO DE FREITAS,MORGADO DE SETUBAL/ R JOSE FRANCISCO DE FREITAS
-46.69680939428905,-23.73637629915975,"TERM. GRAJAÚ , 0",R ALEXANDER BORODIN/ R FRANCESCO GEMINIANI,ALEXANDER BORODIN/ R FRANCESCO GEMINIANI
-46.66515788012608,-23.67269748736378,"AV. YERVANT KISSAJIKIAN , 1526",R CAETANO MERO/ R HERMENEGILDO MARTINI,CAETANO MERO/ R HERMENEGILDO MARTINI
-46.69539181751539,-23.61739582050771,"AV. JURUBATUBA , 177",R BALTAZAR FERNANDES/ TR FIJI,BALTAZAR FERNANDES/ TR FIJI
-46.74326929368046,-23.65299080340901,"R. XICO SANTEIRO , 62",,
-46.69968312126115,-23.51855327117184,"R. WILLIAM SPEERS , 0",,
-46.48295774559653,-23.57503638883579,"R. GASPAR GUTERRES , 0",R FRANCISCO VAZ/ R PAULO DE VERAS,FRANCISCO VAZ/ R PAULO DE VERAS
-46.3850328557382,-23.49103348002555,"R. DR. JOSÉ PEREIRA GOMES , 117",R JORGE DOS SANTOS/ AV CORREGO TIJUCO PRETO,JORGE DOS SANTOS/ AV CORREGO TIJUCO PRETO
-46.79231364130226,-23.43246292319751,"R. VIRGÍNIA CASTIGLIONI , 386",R JOAO ANTONIO MACEDO/ R PONCIANO BARBOSA,JOAO ANTONIO MACEDO/ R PONCIANO BARBOSA
-46.6988490529239,-23.54051617126631,"R. CERRO CORA , 255",R IBIRACU/ R ARAIOSES / Pça. Amadeu Decome,IBIRACU/ R ARAIOSES / Pça. Amadeu Decome
-46.70996859739464,-23.64580973752048,"R. BR. DO RIO BRANCO , 994",Av. João Dias,Av. João Dias
-46.4897986538991,-23.58502136425699,"R. DR. PAULO QUEIROZ , 364",R PAULO MANOGRASSO/ R TAVARES GUERREIRO,PAULO MANOGRASSO/ R TAVARES GUERREIRO
-46.62658332886623,-23.63640153508182,"AV. MIGUEL ESTEFNO , 2710",R IBATIBA/ R DOUTOR JOSE BENTO FERREIRA,IBATIBA/ R DOUTOR JOSE BENTO FERREIRA
-46.68827824699041,-23.50972327715608,"AV. PRES. CASTELO BRANCO , 0",RUA BARAO DE POMBALINHO/ AC AV PRES CASTELO BRANCO PONTE DA FREGUESIA,UA BARAO DE POMBALINHO/ AC AV PRES CASTELO BRANCO PONTE DA FREGUESIA
-46.74764077088856,-23.50370247686968,"AV. ELÍSEO CORDEIRO DE SIQUEIRA , 345",R SACI/ TV MAR ADRIATICO,SACI/ TV MAR ADRIATICO
-46.62178990204808,-23.48102021139623,"R. LARIVAL GEA SANCHES , 0",AV AGUA FRIA/ R ANTONIO CAMPELO,AV AGUA FRIA/ R ANTONIO CAMPELO
-46.47343200311179,-23.52313359268678,"R. QUATRO (R TERRA BRASILEIRA) , 265",R LUA CURIOSA/ AV AGUIA DE HAIA,LUA CURIOSA/ AV AGUIA DE HAIA
-46.71081830718126,-23.43694566632422,"AV. DEP. CANTIDIO SAMPAIO , 6071",VIELA ''''L'''',VIELA ''''L''''
-46.74845453512637,-23.57037718378881,"AV. OTACÍLIO TOMANIK , 1000",R ESTEVAO CALDEIRA/ R CLEON MARIO GACCIONE,ESTEVAO CALDEIRA/ R CLEON MARIO GACCIONE
-46.70544197527557,-23.5470571614877,"R. DA. ELISA MORAES MENDES , 641",R FILADELFO ARANHA/ R JOAO BATISTA CARDOSO,FILADELFO ARANHA/ R JOAO BATISTA CARDOSO
-46.5381982971635,-23.57047756992441,"AV. JOÃO XXIII , 162",AV RENATA/ R ALMIRANTE SILVADO,AV RENATA/ R ALMIRANTE SILVADO
-46.5881808946395,-23.56552473755057,"R. DO ORATÓRIO , 1660",TR ARLINDO RAMOS/ R VALENTIM MAGALHAES,TR ARLINDO RAMOS/ R VALENTIM MAGALHAES
-46.69608860866433,-23.67621456249829,"R. ARNALDO MAGNICCARO , 0",AV DAS NACOES UNIDAS/ AV ENGENHEIRO EUZEBIO STEVAUX,AV DAS NACOES UNIDAS/ AV ENGENHEIRO EUZEBIO STEVAUX
-46.59814955661727,-23.63954443802062,"R. PROF. SYLLA MATTOS , 500",R   MANOEL MANCOS,MANOEL MANCOS
-46.48397699843382,-23.49854073312982,"R. GUILHERME DE OLIVEIRA SA , 213",PRÓXIMO A RUA DOMINGOS CERQUEIRA,PRÓXIMO A RUA DOMINGOS CERQUEIRA
-46.65555398080591,-23.66686548501357,"R. PROF. PAULO MANGABEIRA ALBERNAZ , 94",,
-46.71342995435665,-23.53366924417251,"R. PIO XI , 1200",R JORGE AMERICANO/ R SALES JUNIOR,JORGE AMERICANO/ R SALES JUNIOR
-46.37290395145065,-23.49289543657882,"R. JOÃO BATISTA DE GODOI , 683",,
-46.58581971648474,-23.62316347465391,"AV. PATENTE , 139",R COSME DE SOUZA/ R FREI JUAN AULI,COSME DE SOUZA/ R FREI JUAN AULI
-46.63441136547936,-23.60669468963776,"R. CORREIA DE LEMOS , 285",R RONDINHA/ R AFONSO CELSO,RONDINHA/ R AFONSO CELSO
-46.64073718803947,-23.6428165480667,"AV. ENG. ARMANDO DE ARRUDA PEREIRA , 1767",Rua Antônio André de Sá Filho,ua Antônio André de Sá Filho
-46.57194038813657,-23.46102015583474,"R. LOPES DA COSTA , 933",R JOAQUIM MARTINS/ R CARLOS BOSSOLI,JOAQUIM MARTINS/ R CARLOS BOSSOLI
-46.47213168902972,-23.61808516557582,"AV. SG. IRACITAN COIMBRA , 0",PC RIBEIRO DO CARMO/ R MARCAL DE LEMOS,PC RIBEIRO DO CARMO/ R MARCAL DE LEMOS
-46.71074256454732,-23.65344470604876,"TERM. STO. AMARO , 0",TR JURCI SOARES SEBASTIAO/ R HUMBOLDT,TR JURCI SOARES SEBASTIAO/ R HUMBOLDT
-46.37602887987143,-23.50620138601088,"R. PE. VIRGÍLIO CAMPELLO , 130",R DOIS/ AV DOIS,DOIS/ AV DOIS
-46.43321438071965,-23.51153152785377,"R. MOACIR DANTAS ITAPICURU , 87",R CAUVI/ R PAULO ARMS,CAUVI/ R PAULO ARMS
-46.44263932261428,-23.50533458288951,"AV. PIRES DO RIO , 1074",R PICUIPEBA/ R LUIZ AMORIM COSTA,PICUIPEBA/ R LUIZ AMORIM COSTA
-46.41234428615637,-23.5906011140514,"R. DA. ELOÁ DO VALLE QUADROS , 542",R MICO LEAO DOURADO/ R LOBO GUARA,MICO LEAO DOURADO/ R LOBO GUARA
-46.70961659541369,-23.64723773017797,"R. BR. DO RIO BRANCO , 854",Rua La Paz,ua La Paz
-46.73540998204206,-23.4719095823792,"AV. DR. FELIPE PINEL , 2101",R STEFANO MAUSER/ R SEM NOME,STEFANO MAUSER/ R SEM NOME
-46.39690246329207,-23.57681013074175,"R. WILMA FLOR , 598",Curva da morte,Curva da morte
-46.39957151098664,-23.55628123020745,"AV. MIGUEL ACHIOLE DA FONSECA , 717",R AZEVEDO MONTEIRO/ R RACHID ALVES,AZEVEDO MONTEIRO/ R RACHID ALVES
-46.57437327796104,-23.48733904548918,"PÇA. DIAMANTINO DE JESUS , 1462",AV MILTON DA ROCHA/ R JOSE ANILDO DA MATA,AV MILTON DA ROCHA/ R JOSE ANILDO DA MATA
-46.65810256706943,-23.49002727687752,"R. EPAMINONDAS MELO DO AMARAL , 1265",TR ANTONIO ARGENTI/ R JOAO DA SILVA MOURA,TR ANTONIO ARGENTI/ R JOAO DA SILVA MOURA
-46.64785361568448,-23.50091319863427,"R. LEÃO XIII , 583",AV CASA VERDE/ R NURSIA,AV CASA VERDE/ R NURSIA
-46.78277682417572,-23.69308274261119,"R. PAOLO PORPORA , 86",RUA NIGER,UA NIGER
-46.6372783004981,-23.61859164527301,"R. ENG. JOÃO MONTEIRO DA GAMA , 41",R FIACAO DA SAUDE/ R PARANAPANEMA,FIACAO DA SAUDE/ R PARANAPANEMA
-46.67785161511389,-23.718534322148,"R. JOSÉ FRANCISCO DE FREITAS , 993",R MARCIANO DA SILVA/ R AUGUSTO FILIPE SIMOES,MARCIANO DA SILVA/ R AUGUSTO FILIPE SIMOES
-46.57977694320424,-23.57192368461253,"R. MANOEL ONHA , 153",R AGUA MARINHA/ R DO ORATORIO,AGUA MARINHA/ R DO ORATORIO
-46.60989854858773,-23.6132335890357,"AV. OSWALDO ARANHA , 118",R DOUTOR PLINIO AMARAL/ AV INHAIBA,DOUTOR PLINIO AMARAL/ AV INHAIBA
-46.59750213642553,-23.47199018108727,"AV. DR. ANTÔNIO MARIA LAET , 1130",R NICE/ R GURUPATUBA/R.DOUTOR MOACYR VAZ DE ANDRADE,NICE/ R GURUPATUBA/R.DOUTOR MOACYR VAZ DE ANDRADE
-46.68268228911607,-23.51110325472585,"AV. PRES. CASTELO BRANCO , 6061",R JOSE NELO LORENZON / AV NICOLAS BOER -- LEROY MERLIN,JOSE NELO LORENZON / AV NICOLAS BOER -- LEROY MERLIN
-46.58978810237092,-23.50090302982013,"AV. ALBERTO BYINGTON , 1632",PC MARIA MONTESSORI/ PC RIO BRILHANTE,PC MARIA MONTESSORI/ PC RIO BRILHANTE
-46.58831876116194,-23.60406956670299,"R. COLORADO , 88",Rua Licio de Miranda,ua Licio de Miranda
-46.40408568445641,-23.4942715206828,"R. FRANCISCO VAZ MUNIZ , 0",TV PARTICULAR UM / AV MARECHAL TITO,TV PARTICULAR UM / AV MARECHAL TITO
-46.76237343495755,-23.56564424542397,"R. RAMONDETTI GIÁCOMO , 155",Rua Tenente Nércio Leoni,ua Tenente Nércio Leoni
-46.66525582661913,-23.68794242027099,"AV. EDUARDO PEREIRA RAMOS , 222",R ANTONIO BENEDITO PALHARES/ R PARTICULAR,ANTONIO BENEDITO PALHARES/ R PARTICULAR
-46.61452888482221,-23.50386808854603,"AV. ZAKI NARCHI , 1502",R PAULINA GELLERMANN/ R JACUNA,PAULINA GELLERMANN/ R JACUNA
-46.53800935404399,-23.5543356412383,"R. DR. CARLOS DE MORAES ANDRADE , 273",R ALMIRANTE GIACHETTA/ R XIRIRICA,ALMIRANTE GIACHETTA/ R XIRIRICA
-46.66050340470977,-23.53158009914339,"VIAD. GEN. OLÍMPIO DA SILVEIRA , 500",R FRANCISCO ESTACIO FORTES/ AV PACAEMBU,FRANCISCO ESTACIO FORTES/ AV PACAEMBU
-46.73684139296174,-23.63983084268144,"AV. CARLOS CALDEIRA FILHO , 0",AV GIOVANNI GRONCHI/ R JOAQUIM NUNES TEIXEIRA,AV GIOVANNI GRONCHI/ R JOAQUIM NUNES TEIXEIRA
-46.65859155880922,-23.4912452728816,"R. EPAMINONDAS MELO DO AMARAL , 1400",R ADAO MARTINS DE ALMEIDA CASTILHO/ R JOAO DA SILVA MOURA,ADAO MARTINS DE ALMEIDA CASTILHO/ R JOAO DA SILVA MOURA
-46.51938453006783,-23.54859861261291,"R. CEL. FERREIRA BRAGA , 347",R ALVARES REIS,ALVARES REIS
-46.59673504649862,-23.50020805310861,"AV. ANGELINA , 533",AV ANGELINA/ R ANTONIO OLIVEIRA BRAGA,AV ANGELINA/ R ANTONIO OLIVEIRA BRAGA
-46.76533557041021,-23.80810318551881,"R. SINFONIA MILITAR , 0",R SINFONIA INACABADA/ R C,SINFONIA INACABADA/ R C
-46.52552557225781,-23.52117975269413,"AV. S. MIGUEL , 57",Próximo a Av. Amador Bueno da Veiga,Próximo a Av. Amador Bueno da Veiga
-46.53526928236077,-23.58197051024887,"AV. SAPOPEMBA , 5749",AV ANTONIO BUONO/ R CORONEL RODRIGUES,AV ANTONIO BUONO/ R CORONEL RODRIGUES
-46.51811054177259,-23.54830461021798,"AV. BRASILIO PEREIRA DE MELO , 260",,
-46.6419355194795,-23.5434849921474,"AV. IPIRANGA , 146",PÇA DA REPUBLICA,PÇA DA REPUBLICA
-46.7398638716341,-23.49328250044273,"R. WILLIS ROBERTO BANKS , 407",R MARIANA CAMARGO/ R ADOLFO DE SOUZA CARNEIRO,MARIANA CAMARGO/ R ADOLFO DE SOUZA CARNEIRO
-46.66896098606866,-23.63275667518589,"AV. JORN. ROBERTO MARINHO , 0",VDTO DEPUTADO LUIS FERNANDO MAGALHAES/ R PALMARES,VDTO DEPUTADO LUIS FERNANDO MAGALHAES/ R PALMARES
-46.50211759512234,-23.5719624582826,"AV. DOS LATINOS , 440",R CAMPO DA VINHA/ R OLGA FADEL ABARCA,CAMPO DA VINHA/ R OLGA FADEL ABARCA
-46.48990065547478,-23.58431136771644,"R. DR. PAULO QUEIROZ , 283",R TAVARES GUERREIRO/ R PAULO MANOGRASSO,TAVARES GUERREIRO/ R PAULO MANOGRASSO
-46.5569200713043,-23.59050153539943,"R. SECUNDINO DOMINGUES , 477",RUA JAGUARARI,UA JAGUARARI
-46.80046470242817,-23.68549882799863,"R. FLANDRES , 0",R JOAO FELICIO DOS SANTOS/ R BORABORA,JOAO FELICIO DOS SANTOS/ R BORABORA
-46.69952511834064,-23.51979126521515,"TERM. LAPA - PLAT. 1 , 0",VDTO COMENDADOR ELIAS NAGIB BLEIN/ R GUAICURUS,VDTO COMENDADOR ELIAS NAGIB BLEIN/ R GUAICURUS
-46.73899215836541,-23.41150986136918,"R. CAVALO MARINHO , 843",R SEM NOME/ R SEM NOME,SEM NOME/ R SEM NOME
-46.7637333798981,-23.57833719324172,"R. LUCAS DE LEYDE , 133",,
-46.63573010520859,-23.67899437329059,"R. SEBASTIÃO AFONSO , 722",RUA DR. SILVIO DE CAMPOS (TP 509M/10 E 21) OPOSTO AO N.º 723,UA DR. SILVIO DE CAMPOS (TP 509M/10 E 21) OPOSTO AO N.º 723
-46.56286140388369,-23.47873105045956,"R. LILIENTAL , 188",RUA MAJOR BARACCA/RUA BASÍLIO ALVES MORANGO,UA MAJOR BARACCA/RUA BASÍLIO ALVES MORANGO
-46.57605813546701,-23.52490288300175,"AV. MORVAN DIAS DE FIGUEIREDO , 6169",R BENEDITO ALESSIO/ R TUIUTI,BENEDITO ALESSIO/ R TUIUTI
-46.68919209993228,-23.55038009933417,"R. JERICÓ , 291",,
-46.64461453000619,-23.53386404270201,"TERM. PRINCESA ISABEL , 0",AV RIO BRANCO/ R DOS GUAIANAZES,AV RIO BRANCO/ R DOS GUAIANAZES
-46.42365917964922,-23.59390113223113,"AV. RAGUEB CHOHFI , 7614",7613 R   ERICO SEMER,7613 R   ERICO SEMER
-46.5790591080566,-23.52555688881849,"AV. MORVAN DIAS DE FIGUEIREDO , 0",R BENEDITO ALESSIO/ R TUIUTI,BENEDITO ALESSIO/ R TUIUTI
-46.66685758002398,-23.75525412788535,"R. PEDRO ESCOBAR , 173",R NUNO VAZ PINTO/ R ANTONIO DE AZEREDO MAGALHAES,NUNO VAZ PINTO/ R ANTONIO DE AZEREDO MAGALHAES
-46.74000360679071,-23.5701021603054,"AV. CORIFEU DE AZEVEDO MARQUES , 2915",R PADRE JOSE GIOMINI/ R FREI INACIO DA CONCEICAO,PADRE JOSE GIOMINI/ R FREI INACIO DA CONCEICAO
-46.545526327076,-23.54377971012069,"AV. CONS. CARRÃO , 1493",R MARIANO DE SOUSA/ R JARU,MARIANO DE SOUSA/ R JARU
-46.77166313254475,-23.63083298447876,"TERM. CAMPO LIMPO , 0",R CAMPINA GRANDE/ AV VITOR GABRIEL,CAMPINA GRANDE/ AV VITOR GABRIEL
-46.74542712864161,-23.40445191147021,"R. FIORELLI PECCICACCO , 1136",R SANTINA/ R FRANCISCO RODRIGUES PENTEADO,SANTINA/ R FRANCISCO RODRIGUES PENTEADO
-46.69105601976596,-23.56917602142004,"AV. BRIG. FARIA LIMA , 1355",,
-46.59388226952753,-23.44184730504681,"AV. CEL. SEZEFREDO FAGUNDES , 4775",R USHIKICHI KAMIYA/ TR NOSSA SENHORA DA PIEDADE,USHIKICHI KAMIYA/ TR NOSSA SENHORA DA PIEDADE
-46.67069034876629,-23.52300516691755,"R. JOSÉ DE OLIVEIRA COUTINHO , 0",R GUSTAV WILLIBORGHOFF/ R ACHILLES ORLANDO CURTOLO,GUSTAV WILLIBORGHOFF/ R ACHILLES ORLANDO CURTOLO
-46.684148307381,-23.50218429862501,"AV. ANTÔNIO MUNHOZ BONILHA , 167",R CORREIA DE SA/ AV NOSSA SENHORA DO O,CORREIA DE SA/ AV NOSSA SENHORA DO O
-46.58100815647172,-23.50661697884355,"R. OSAKA , 31",R TOGO/ R CANHONEIRA MEARIM,TOGO/ R CANHONEIRA MEARIM
-46.40889639882635,-23.56614321322267,"R. DR. GUILHERME DE ABREU SODRE , 114",RUA BARÃO DE GOUVINHAS,UA BARÃO DE GOUVINHAS
-46.71465471395722,-23.60062095109781,"R. PE. LEBRET , 0",R RUGGERO FASANO/ R RUBENS DO AMARAL,RUGGERO FASANO/ R RUBENS DO AMARAL
-46.5013626730568,-23.55104754929091,"R. KIRA , 450",R BALSAMO/ R MURICI,BALSAMO/ R MURICI
-46.67551771787301,-23.69450342138505,"R. ANTÔNIO DO CAMPO , 72",AV. NOSSA SENHORA DO SABARÁ,AV. NOSSA SENHORA DO SABARÁ
-46.5877830217578,-23.52939289712131,"AV. CDSSA. ELISABETH DE ROBIANO , 0",AV SALIM FARAH MALUF/ R JUVENAL GOMES COIMBRA,AV SALIM FARAH MALUF/ R JUVENAL GOMES COIMBRA
-46.54804338369146,-23.52105081870673,"R. PE. BENEDITO DE CAMARGO , 722",R FRANCISCO MELCHIORI/ R HENRIQUE DE SOUSA QUEIROS,FRANCISCO MELCHIORI/ R HENRIQUE DE SOUSA QUEIROS
-46.48601756875166,-23.61911320146757,"R. GEORGE BEKESY , 1",RUA JIM BACKUS,UA JIM BACKUS
-46.49306477384172,-23.54196056568968,"R. HENRIQUE JACOBS , 802",R. Dr. Urbano Pereira/ R. Pontal,Dr. Urbano Pereira/ R. Pontal
-46.79120081432337,-23.67557584448346,"R. VALTER AIROSA FLAQUER , 279",Rua Ernesto Soares Filho,ua Ernesto Soares Filho
-46.66396610538245,-23.61027476013545,"AL. DOS MARACATINS , 1250",AV MOACI / AV IRAI,AV MOACI / AV IRAI
-46.58452136036043,-23.43821329412823,"R. USHIKICHI KAMIYA , 1250",RUA SIMAO DE ABREU/RUA VICENTE QUEROL,UA SIMAO DE ABREU/RUA VICENTE QUEROL
-46.75962735561435,-23.59536210593799,"ESTR. DO JAGUARÉ , 1597",R HERMELINDO BRANCO/ R BERTOLDO DI GIOVANNI,HERMELINDO BRANCO/ R BERTOLDO DI GIOVANNI
-46.37135493740719,-23.50085339643632,"R. ESTUDANTES DA CHINA , 518",R JOSE MARIO DONIZETTI BARONI / R PADRE FRANCISCO VELOSO,JOSE MARIO DONIZETTI BARONI / R PADRE FRANCISCO VELOSO
-46.64949590391947,-23.70381530391655,"AV. DAS GAROUPAS , 0",R DOS ROBALOS/ R DAVIDE PEREZ,DOS ROBALOS/ R DAVIDE PEREZ
-46.63800142405197,-23.58089981454527,"M01 V. MARIANA - ANA ROSA , 505",R DOMINGOS DE MORAIS,DOMINGOS DE MORAIS
-46.64411743667931,-23.56229191498318,"R. STA. MADALENA , 371",R DOUTOR ALFREDO ELLIS/ AV BRIGADEIRO LUIS ANTONIO,DOUTOR ALFREDO ELLIS/ AV BRIGADEIRO LUIS ANTONIO
-46.60002506345139,-23.48717212074671,"R. BORGES , 473",R ANGELA DO AMARAL RANGEL/ R PE. AGOSTINHO DE MATOS,ANGELA DO AMARAL RANGEL/ R PE. AGOSTINHO DE MATOS
-46.62905361565656,-23.54692493932344,"TERM. PARQUE DOM PEDRO II - PLAT 06 , 0",AV DO ESTADO/ VDTO ANTONIO NAKASHIMA - (PMV - 62) - VAGO,AV DO ESTADO/ VDTO ANTONIO NAKASHIMA - (PMV - 62) - VAGO
-46.64408803971556,-23.67765540370041,"AV. STO. AFONSO , 363",TR HAROLDO BARBOSA/ R MARGUERITA ALVAREZ,TR HAROLDO BARBOSA/ R MARGUERITA ALVAREZ
-46.58572880304453,-23.59820558518499,"AV. PRES. WILSON , 5524",RUA URUTÁGUA,UA URUTÁGUA
-46.74362628131183,-23.65570479247488,"R. MAPORÉ , 637",,
-46.68846638984493,-23.46750446538336,"R. VIRAJUBÁ , 36",R JOAO HONORIO/ R SEM NOME,JOAO HONORIO/ R SEM NOME
-46.68605701462661,-23.58285194620166,"AV. CIDADE JARDIM , 897",R CAMARGO CABRAL/ R DOUTOR MARIO FERRAZ,CAMARGO CABRAL/ R DOUTOR MARIO FERRAZ
-46.70818995212576,-23.54709916932045,"R. DR. ALBERTO SEABRA , 402",,
-46.70512800271016,-23.53983019262578,"R. DR. ALBERTO SEABRA , 1304",R PUTUMUJU/ R AECRI,PUTUMUJU/ R AECRI
-46.71437217299698,-23.75770425686297,"AV. SEN. TEOTÔNIO VILELA , 7081",R LUIZ SUPERTTI/ R DAVID FABRICIUS,LUIZ SUPERTTI/ R DAVID FABRICIUS
-46.79230473743617,-23.69509976173754,"R. CICLADES , 142",,
-46.59548063112684,-23.62440649735703,"R. S. SILVESTRE , 143",RUA SANTO APOLINÁRIO,UA SANTO APOLINÁRIO
-46.48403085477965,-23.54048654601439,"TERM. METRÔ ARTUR ALVIM (LADO SUL) , 0",AV PADRE ESTANISLAU DE CAMPOS/ AV AGUIA DE HAIA,AV PADRE ESTANISLAU DE CAMPOS/ AV AGUIA DE HAIA
-46.34279909652054,-23.52472220681459,"C11 FERRAZ DE VASCONCELOS - POÁ , 0",AV BRASIL,AV BRASIL
-46.58642278839483,-23.60077457580111,"R. AURIVERDE , 1716",AV DAS CARINAS/ R ALBINO DE MORAIS,AV DAS CARINAS/ R ALBINO DE MORAIS
-46.39377763729465,-23.53355931498711,"ESTR. DO LAGEADO VELHO , 1591",R   LOPES DE CASCAIS,LOPES DE CASCAIS
-46.64197409247971,-23.66751044238459,"R. HUGO VITOR SILVA , 549",RUA SÃO PEDRO DO SUL,UA SÃO PEDRO DO SUL
-46.58492895278587,-23.55652176810893,"R. FERNANDO FALCÃO , 378",R CASSANDOCA/ PC PROFESSOR OSORIO DE ALMEIDA,CASSANDOCA/ PC PROFESSOR OSORIO DE ALMEIDA
-46.60627212662762,-23.45331228983456,"R. PEDRO DE ABREU , 0",R GABRIEL MARTINS/ R USHI KAMIA,GABRIEL MARTINS/ R USHI KAMIA
-46.60699548042851,-23.64011146136682,"AV. PE. ARLINDO VIEIRA , 2449",R JOSE PEREIRA BARRETO/ R SEBASTIAO DOMINGUES,JOSE PEREIRA BARRETO/ R SEBASTIAO DOMINGUES
-46.48422185397806,-23.54025154761777,"R. DR. LUIZ AIRES , 0",AV AGUIA DE HAIA/ AV PADRE ESTANISLAU DE CAMPOS,AV AGUIA DE HAIA/ AV PADRE ESTANISLAU DE CAMPOS
-46.73580260686045,-23.58030110287608,"AV. COM. ALBERTO BONFIGLIOLI , 243",R JOSE AIRES NETO/ R DOUTOR ITALO EBOLI,JOSE AIRES NETO/ R DOUTOR ITALO EBOLI
-46.70580162037768,-23.64926471004165,"R. VERA CRUZ , 35",AV MARIO LOPES LEAO/ R CERQUEIRA CESAR,AV MARIO LOPES LEAO/ R CERQUEIRA CESAR
-46.573272368412,-23.46353014849749,"R. LOPES DA COSTA , 621",R BARREIRO DA RAIZ/ R BAIA DOS PASSAROS,BARREIRO DA RAIZ/ R BAIA DOS PASSAROS
-46.66037941930551,-23.52762411635707,"AV. PACAEMBU , 35",R CAMARAJIBE/ R BRIGADEIRO GALVAO,CAMARAJIBE/ R BRIGADEIRO GALVAO
-46.7225179285314,-23.51902433564675,"R. MONTE PASCAL , 0",R BARAO DE ITAUNA/ AV ERNESTO IGEL,BARAO DE ITAUNA/ AV ERNESTO IGEL
-46.70119172828971,-23.62918378532705,"R. DA PAZ , 1387",R RODRIGUES PAES/ R AMARO GUERRA,RODRIGUES PAES/ R AMARO GUERRA
-46.60762200270211,-23.48631414664337,"TERM. METRÔ PARADA INGLESA , 0",R PRF. MARCONDES DOMINGUES/ R INGLESA,PRF. MARCONDES DOMINGUES/ R INGLESA
-46.40108971161117,-23.49369651458212,"R. RAFAEL CORREIA DA SILVA , 280",R ALBARDAO/ R ITAPIREMA - ESTAÇÃO CPTM ITAIM PAULISTA,ALBARDAO/ R ITAPIREMA - ESTAÇÃO CPTM ITAIM PAULISTA
-46.50695849038971,-23.59065538913434,"R. ANTÔNIO BONPORTI , 84",RUA LUIS PARISOTTO,UA LUIS PARISOTTO
-46.50264848297405,-23.60337631996092,"AV. ARQ. VILANOVA ARTIGAS , 995",R GIOVANNI NASCO/ R CARLO CLAUSETTI,GIOVANNI NASCO/ R CARLO CLAUSETTI
-46.46656179573893,-23.60062922708465,"AV. FORTE DO LEME , 0",R FORTE ARAXÁ/FORTE CANANEIA,FORTE ARAXÁ/FORTE CANANEIA
-46.44128024612279,-23.53110846374632,"ESTR. ITAQUERA-GUAIANAZES , 217",R MARIA BAUMANN MENDONCA/ R DAMASIO PINTO,MARIA BAUMANN MENDONCA/ R DAMASIO PINTO
-46.6518337423652,-23.45407641869999,"AV. FRANCISCO MACHADO DA SILVA , 1713",AV. SANTA INES/PRAÇA DA PAZ,AV. SANTA INES/PRAÇA DA PAZ
-46.62325398552225,-23.4529663406638,"R. MATEUS GARCIA , 585",R   LUIZ ARNONI,LUIZ ARNONI
-46.47087793591403,-23.54908546943179,"AV. MIGUEL IGNÁCIO CURI , 0",FUNDAÇÃO CASA,FUNDAÇÃO CASA
-46.70895660671509,-23.645565735634,"AV. JOÃO DIAS , 925",PAS C/ R BARAO DO RIO BRANCO,PAS C/ R BARAO DO RIO BRANCO
-46.52748729944765,-23.59604342496664,"AV. VILA EMA , 5752",RUA SANTA MARIA DO CAMBUCÁ - C/B,UA SANTA MARIA DO CAMBUCÁ - C/B
-46.71892772553541,-23.58686502448455,"R. DR. CLOVIS DE OLIVEIRA , 275",Rua Eugênio Bettarello,ua Eugênio Bettarello
-46.4070103571562,-23.58297013260584,"TERM. CIDADE TIRADENTES , 0",AV NAYLOR DE OLIVEIRA/ AV DOS METALURGICOS,AV NAYLOR DE OLIVEIRA/ AV DOS METALURGICOS
-46.74714697450599,-23.44540673429965,"R. PST. ALCEBÍADES PEREIRA VASCONCELOS , 40",AV ALEXIOS JAFET/ R SEM NOME,AV ALEXIOS JAFET/ R SEM NOME
-46.48962998168003,-23.48952878979055,"R. CAIÇARA DO RIO DO VENTO , 1035",R WENCESLAU GUIMARAES/ R ANISIO DE ABREU,WENCESLAU GUIMARAES/ R ANISIO DE ABREU
-46.46685675463826,-23.61189117778504,"AV. SATÉLITE , 457",VEL VINTE E DOIS/ R TOURO,VEL VINTE E DOIS/ R TOURO
-46.67606605635851,-23.59505486293472,"R. CLODOMIRO AMAZONAS , 1291",R JOAO CACHOEIRA/ R SANTA JUSTINA,JOAO CACHOEIRA/ R SANTA JUSTINA
-46.57182533836638,-23.47589908911204,"AV. ROLAND GARROS , 1667",,
-46.5427584243163,-23.52214179848299,"R. PLÍNIO AUGUSTO DE CAMARGO , 91",R. CAQUITO / AV. AMADOR BUENO DA VEIGA,CAQUITO / AV. AMADOR BUENO DA VEIGA
-46.50879679448767,-23.49722581100956,"R. CURIÚVA , 4",R ANTONIA TERESA DE PAULA MATIAS/ R MELO DE PORTUGAL,ANTONIA TERESA DE PAULA MATIAS/ R MELO DE PORTUGAL
-46.64745249063456,-23.53841303075814,"TERM. AMARAL GURGEL , 0",TR DOS DESENHISTAS/ R ANA CINTRA,TR DOS DESENHISTAS/ R ANA CINTRA
-46.49518356767164,-23.59697332671373,"R. BARRA DO CAETÉ , 218",R ANA HELENO BALDINATO/ R IPOEMA,ANA HELENO BALDINATO/ R IPOEMA
-46.49336768362503,-23.56758645232157,"R. JOÃO CHAGAS , 100",R PROFESSOR JOSE BARBOSA RAMALHO/ R ELZA DOS ANJOS NEVES,PROFESSOR JOSE BARBOSA RAMALHO/ R ELZA DOS ANJOS NEVES
-46.62842339996333,-23.61126765186712,"R. IBIRAREMA , 39",AV BOSQUE DA SAUDE/ AV BOTUQUARA,AV BOSQUE DA SAUDE/ AV BOTUQUARA
-46.61451647861186,-23.62231156226336,"R. NSA. SRA. DA SAÚDE , 526",R ORLANDO FERRAIUOLO/ R JEAN DE LA HUERTA,ORLANDO FERRAIUOLO/ R JEAN DE LA HUERTA
-46.58529622029029,-23.47740012152499,"R. TANQUE VELHO , 1563",R MAURICIO SEMER/ AV JARDIM JAPAO,MAURICIO SEMER/ AV JARDIM JAPAO
-46.58854338000567,-23.42253737579093,"R. DA SERESTA , 12",RUA DA QUIMERA,UA DA QUIMERA
-46.69171805806167,-23.55641407994059,"R. MOURATO COELHO , 1256",,
-46.39946350516305,-23.5582522210859,"AV. MIGUEL ACHIOLE DA FONSECA , 0",PC GONCALO RAVASCO/ R DOUTOR JOAO OTAVIANO PEREIRA,PC GONCALO RAVASCO/ R DOUTOR JOAO OTAVIANO PEREIRA
-46.53807640114124,-23.54041070345817,"AV. ARICANDUVA , 1341",RUA GAVINO VIRDES,UA GAVINO VIRDES
-46.46639212362635,-23.50514965259446,"R. PALMEIRA DE LEQUE , 640",RUA CAPAROSA,UA CAPAROSA
-46.76858592264315,-23.69894967505947,"AV. PROF. MÁRIO MAZAGÃO , 55",EST DA BARONESA/ R SOARES DE SOUSA JUNIOR,EST DA BARONESA/ R SOARES DE SOUSA JUNIOR
-46.75273703514754,-23.41395489041215,"R. JÚLIO MACIEL , 50",R BRAZ BALTAZAR DA SILVEIRA/ R MANUEL TEIXEIRA,BRAZ BALTAZAR DA SILVEIRA/ R MANUEL TEIXEIRA
-46.47475383815052,-23.56814239570239,"AV. MARIA LUIZA AMERICANO , 1550",R   VITORIANO DOS ANJOS,VITORIANO DOS ANJOS
-46.49855478594615,-23.52492365764452,"R. STO. HENRIQUE , 591",RUA MUNICIPAL,UA MUNICIPAL
-46.41797332781428,-23.56457624658528,"R. FRANCISCO CARDOSO JÚNIOR , 31",,
-46.74918862914652,-23.54123931496915,"AV. DRACENA , 765",R SANTA LEONOR/ R AGUANOS,SANTA LEONOR/ R AGUANOS
-46.64012581031285,-23.46289734539786,"R. TOMÉ AFONSO DE MOURA , 420",TR GIACOMO MACARI/ R CAMILO BATISTA,TR GIACOMO MACARI/ R CAMILO BATISTA
-46.51287862793584,-23.53595865004057,"R. ASSIS VALENTE , 590",R SAO DONATO/ R LAGOA FORMOSA,SAO DONATO/ R LAGOA FORMOSA
-46.70307319187101,-23.48965040942182,"R. CARLOS ALBERTO MORETTI , 154",R PRF. OLIVEIRA E SOUZA/ R JULIO AUGUSTO BRANDASSI,PRF. OLIVEIRA E SOUZA/ R JULIO AUGUSTO BRANDASSI
-46.66599802431673,-23.62886568374176,"AV. WASHINGTON LUIZ , 5850",RUA TAMOIO,UA TAMOIO
-46.60510694552314,-23.50921403734491,"AV. JOAQUINA RAMALHO , 814",R DO CANAL/ R PEDRA SABAO,DO CANAL/ R PEDRA SABAO
-46.66967252339066,-23.47446237977791,"TERM. VILA NOVA CACHOEIRINHA , 0",AV INAJAR DE SOUZA/ TERMINAL VILA NOVA CACHOEIRINHA,AV INAJAR DE SOUZA/ TERMINAL VILA NOVA CACHOEIRINHA
-46.59981502190679,-23.4998480636652,"AV. CONCEIÇÃO , 1398",R CORONEL JORDAO/ R PADRE LEHMANN,CORONEL JORDAO/ R PADRE LEHMANN
-46.77267704911351,-23.65252289173316,"R. JOÃO FLORÊNCIO DE SALLES GOMES , 15",R FRANCISCO DE PAULA FERRAIOL/ R JOSE MAXIMO PINHEIRO DE LIMA,FRANCISCO DE PAULA FERRAIOL/ R JOSE MAXIMO PINHEIRO DE LIMA
-46.75152060297789,-23.54317831318802,"AV. PRES. ALTINO , 1452",R SANTA LEONOR/ R ALARICO FRANCO CAIUBI,SANTA LEONOR/ R ALARICO FRANCO CAIUBI
-46.49784871364172,-23.54781255349748,"AV. PROF. EDGAR SANTOS , 363",RUA CERRO AZUL,UA CERRO AZUL
-46.66171691716032,-23.67032948775037,"R. SALVADOR RODRIGUES NEGRÃO , 515",RUA DIOGO PEREIRA PAIS,UA DIOGO PEREIRA PAIS
-46.59965192604112,-23.52827693662629,"R. MANOEL RAMOS PAIVA , 441",AV. ARISTON DE AZEVEDO,AV. ARISTON DE AZEVEDO
-46.63676161824601,-23.5273160489331,"R. GUARANI , 368",R. ANTONIO CORUJA,ANTONIO CORUJA
-46.62761005029301,-23.71459119210243,"AV. ALDA , 2010",ESTRADA DO ALVARENGA -- LATERAL DO COLÉGIO INFANTIL PRÓ-REI,ESTRADA DO ALVARENGA -- LATERAL DO COLÉGIO INFANTIL PRÓ-REI
-46.72386218266548,-23.44146368412962,"AV. NELSON PALMA TRAVASSOS , 271",,
-46.71260193253101,-23.83105292910472,"R. VISC. DE MONTALEGRE , 580",R QUATRO/ R BARAO DA FOZ,QUATRO/ R BARAO DA FOZ
-46.725274511008,-23.63369383590845,"AV. DA. HELENA PEREIRA DE MORAES , 290",Rua Deputado Laércio Corte,ua Deputado Laércio Corte
-46.57999194406862,-23.57114568869791,"R. SILVA COUTINHO , 112",R DO ORATORIO/ R LUCIO CARDOSO,DO ORATORIO/ R LUCIO CARDOSO
-46.43652802951269,-23.60612211517962,"R. ANECY ROCHA , 459",RUA ALAMANDA ROXA,UA ALAMANDA ROXA
-46.67803980178281,-23.66410956307875,"AV. INTERLAGOS , 1260",AV SRG.  GERALDO SANTANA,AV SRG.  GERALDO SANTANA
-46.44695515104922,-23.54497741827509,"AV. JACU-PÊSSEGO/NOVA TRABALHADORES , 2551",Santa Terezinha Materiais de Construção,Santa Terezinha Materiais de Construção
-46.41450060271077,-23.49255655852252,"AV. ESTRELA DA NOITE , 365",VIAD. DA CHINA /  R ESTRELA AZUL,VIAD. DA CHINA /  R ESTRELA AZUL
-46.49329497657875,-23.48199483408444,"R. BISPO E MARTINS , 0",R ARLINDO BETTIO/ R SALESOPOLIS,ARLINDO BETTIO/ R SALESOPOLIS
-46.51724561101981,-23.53017968850063,"R. ASTORGA , 847",R SAO BENTO DO SAPUCAI/ R COSTA REGO,SAO BENTO DO SAPUCAI/ R COSTA REGO
-46.66134505465194,-23.63138165899014,"R. TAMOIOS , 584",R CARLOS PINTO ALVES/ R PROFESSORA HELOISA CARNEIRO,CARLOS PINTO ALVES/ R PROFESSORA HELOISA CARNEIRO
-46.79950271179117,-23.68511982683998,"R. FEITIÇO DA VILA , 51",ESTRADA DE ITAPECERICA,ESTRADA DE ITAPECERICA
-46.7463749493673,-23.45465169096664,"AV. JERIMANDUBA , 570",R DR. RAFAEL DE ARAUJO RIBEIRO/ R BENEDITO EMILIANO,DR. RAFAEL DE ARAUJO RIBEIRO/ R BENEDITO EMILIANO
-46.62489084270288,-23.49078517692228,"R. DR. ARTUR GUIMARÃES , 137",Rua Voluntários da Pátria,ua Voluntários da Pátria
-46.70553388593027,-23.57283904746766,"AV. PROF. FRANCISCO MORATO , 98",R MMDC/ AV LINEU DE PAULA MACHADO,MMDC/ AV LINEU DE PAULA MACHADO
-46.57150509456022,-23.54801376687091,"R. COELHO LISBOA , 481",R EUCLIDES PACHECO/ R EMILIO MALLET,EUCLIDES PACHECO/ R EMILIO MALLET
-46.40077046513248,-23.56674918691633,"AV. JOSÉ HIGINO NEVES , 0",Próximo a Rua Utaro Kanai,Próximo a Rua Utaro Kanai
-46.74888632121604,-23.63140191521177,"R. CATAQUENA , 301",Rua Citare,ua Citare
-46.65077056803758,-23.50769717695022,"AV. BRÁZ LEME , 1000",CALÇADA DA TOTVS - R DO ACLAMADO/ R DES. EUCLIDES SILVEIRA,CALÇADA DA TOTVS - R DO ACLAMADO/ R DES. EUCLIDES SILVEIRA
-46.77621684055612,-23.7041986743742,"R. ANTIGO CONTINENTE , 13",R TIJUCO DA SERRA/ R NOVA PROVIDENCIA,TIJUCO DA SERRA/ R NOVA PROVIDENCIA
-46.74752118406778,-23.67439372143337,"ESTR. DO M BOI MIRIM , 1645",R BELCHIOR FELIX/ R MANDCHURIA,BELCHIOR FELIX/ R MANDCHURIA
-46.45415813708542,-23.53133650010504,"R. CAROLINA FONSECA , 175",R CRISTOVAO ALVES/ R ADEMIR ROLDAN PEREIRA,CRISTOVAO ALVES/ R ADEMIR ROLDAN PEREIRA
-46.50647668416968,-23.53523663465443,"R. DR. IVAN MAIA DE VASCONCELOS , 52",R SABAUDIA/ PC ENGENHEIRO RIBEIRO VIEGAS,SABAUDIA/ PC ENGENHEIRO RIBEIRO VIEGAS
-46.80487298582594,-23.5928492495066,"C. V. ALCINDA FERRARI DE ULHÔA CINTRA , 20000",Viaduto Procurador Silvio de Ulhôa Cintra,Viaduto Procurador Silvio de Ulhôa Cintra
-46.61918682409459,-23.51020907387071,"AV. ZAKI NARCHI , 0",AV MOYSES ROYSEN/ AV OTTO BAUMGART,AV MOYSES ROYSEN/ AV OTTO BAUMGART
-46.60363579186528,-23.5576908174098,"R. GUARATINGUETÁ , 0",R MARINA CRESPI/ R CANUTO SARAIVA,MARINA CRESPI/ R CANUTO SARAIVA
-46.6433173297066,-23.59538376580964,"R. NAPOLEÃO DE BARROS , 550",RUA DIOGO DE FARIA,UA DIOGO DE FARIA
-46.73525019722684,-23.40928586040267,"R. ERNESTO BOTTONI , 354",,
-46.74632043353174,-23.60506702408142,"AV. PROF. FRANCISCO MORATO , 5885",Av. Dr. Guilherme Dumont Vilares,Av. Dr. Guilherme Dumont Vilares
-46.72339087143599,-23.53353927380706,"R. TEERÃ , 487",R KABUL/ R CARLOS WEBER,KABUL/ R CARLOS WEBER
-46.39141347300807,-23.58747806715304,"R. PATRÍCIO TEIXEIRA , 139",R NICOLAS ARISTA/ R PAULINE CARO,NICOLAS ARISTA/ R PAULINE CARO
-46.57318223696182,-23.50226997546969,"AV. DAS CEREJEIRAS , 2151",PC TOKIO/ R YAMATO,PC TOKIO/ R YAMATO
-46.65386036718009,-23.55875095911943,"AV. NOVE DE JULHO , 2000",R ENGENHEIRO MONLEVADE/ VDTO PROFESSOR BERNARDINO TRANCHESI,ENGENHEIRO MONLEVADE/ VDTO PROFESSOR BERNARDINO TRANCHESI
-46.53575238492036,-23.55085165018745,"R. DULCE , 214",R ROGERIO GIORGI/ R ENGENHEIRO PEGADO,ROGERIO GIORGI/ R ENGENHEIRO PEGADO
-46.52876430281535,-23.59193544696223,"AV. SAPOPEMBA , 7098",R TALES/ R POSIDONIO,TALES/ R POSIDONIO
-46.70075329417232,-23.75569422563942,"R. JOÃO AMOS COMENIUS , 429",RUA DR. ANTÔNIO SIMÕES DE CARVALHO,UA DR. ANTÔNIO SIMÕES DE CARVALHO
-46.54768639644229,-23.51819683038991,"AV. GABRIELA MISTRAL , 207",R RODOVALHO JUNIOR/ R RONDONOPOLIS,RODOVALHO JUNIOR/ R RONDONOPOLIS
-46.45294611848472,-23.53976645893992,"R. KEN SUGAYA , 233",R BARROS CASSAL/ LARGO DA MATRIZ,BARROS CASSAL/ LARGO DA MATRIZ
-46.7236256952159,-23.58424604981361,"AV. DEP. JACOB SALVADOR ZVEIBIL , 0",Av. Prof. Francisco Morato,Av. Prof. Francisco Morato
-46.74887450773558,-23.577316154306,"AV. JOSÉ JOAQUIM SEABRA , 96",AV ENGENHEIRO HEITOR ANTONIO EIRAS GARCIA/ R ENGENHEIRO WILLY FISCHER,AV ENGENHEIRO HEITOR ANTONIO EIRAS GARCIA/ R ENGENHEIRO WILLY FISCHER
-46.75990843491052,-23.57165121163576,"AV. DO RIO PEQUENO , 1845",R MARIA TEREZA NASCIMENTO DE AZEVEDO/ R GEN. SYZENO SARMENTO,MARIA TEREZA NASCIMENTO DE AZEVEDO/ R GEN. SYZENO SARMENTO
-46.50698949456602,-23.58936139498489,"AV. DA BARREIRA GRANDE , 3098",,
-46.71693008517055,-23.77680218034192,"AV. PROF. HERMÓGENES DE FREITAS LEITÃO FILHO , 593",RUA COSTELAÇÃO DO CORVO,UA COSTELAÇÃO DO CORVO
-46.62402143043207,-23.61314263069267,"AV. BOSQUE DA SAÚDE , 1593",R SAMAMBAIA/ R GUARAREMA,SAMAMBAIA/ R GUARAREMA
-46.73654309067245,-23.43735073928467,"R. HENRIQUE SALVATORI , 180",RUA PAULO ARENTINO / EMEF CITY JARAGUA 04,UA PAULO ARENTINO / EMEF CITY JARAGUA 04
-46.61203362028005,-23.58716571095652,"R. BR. DE LORETO , 122",R GAMA LOBO/ R PAULO BREGARO,GAMA LOBO/ R PAULO BREGARO
-46.68772751697554,-23.72295533164973,"AV. MANUEL ALVES SOARES , 295",R. DOVILIO PREVATO,DOVILIO PREVATO
-46.42430741665923,-23.52295445094935,"R. JOSÉ VIEIRA GUIMARÃES , 580",R MIGUEL DA FONSECA/ R NICOLA BERGONZI,MIGUEL DA FONSECA/ R NICOLA BERGONZI
-46.39403844702532,-23.58861406970908,"AV. NAYLOR DE OLIVEIRA , 2164",R ANTONIO AFONSO SILVA/ R PATRICIO TEIXEIRA,ANTONIO AFONSO SILVA/ R PATRICIO TEIXEIRA
-46.70992328382157,-23.73652533705806,"R. ACÁCIO FONTOURA , 1026",R SAO JOSE BENTO COTTOLENGO/ R RABINDRANAT TAGORE,SAO JOSE BENTO COTTOLENGO/ R RABINDRANAT TAGORE
-46.42437836778367,-23.53710338790973,"AV. JOSÉ PINHEIRO BORGES , 48",RUA VALENTIM LEMOS/ R MANUEL CALHAMARES,UA VALENTIM LEMOS/ R MANUEL CALHAMARES
-46.53317028995073,-23.58489749111105,"AV. SAPOPEMBA , 6150",R FERNANDO TORQUATO/ R GASPAR DOS SANTOS,FERNANDO TORQUATO/ R GASPAR DOS SANTOS
-46.74381870464376,-23.53233533875213,"AV. MOFARREJ , 1174",Rua Mergenthaler,ua Mergenthaler
-46.74736010282585,-23.40728590446956,"R. ENG. AUGUSTO DURANTE , 386",R TELMA/ R AQUILES NETO,TELMA/ R AQUILES NETO
-46.54798742593194,-23.5088268730367,"R. DR. ASSIS RIBEIRO , 242",R COPEREMA/ R MALACACHETA,COPEREMA/ R MALACACHETA
-46.60413264976759,-23.59787364036314,"R. CLEMENTE PEREIRA , 58",R BOM PASTOR/ R CIPRIANO BARATA,BOM PASTOR/ R CIPRIANO BARATA
-46.53983033318141,-23.55596363928812,"R. DR. CARLOS DE MORAES ANDRADE , 5",PC JOAO CASA GRANDE/ R PONTA DE LESTE,PC JOAO CASA GRANDE/ R PONTA DE LESTE
-46.69879808244941,-23.5320342087535,"R. MARCO AURÉLIO , 578",R   CATAO,CATAO
-46.80009658179853,-23.43085295299188,"ESTR. DE PIRAPORA , 850",FABRICA DE BLOCOS NO 830,FABRICA DE BLOCOS NO 830
-46.61544163480844,-23.57461077664806,"R. GASPAR FERNANDES , 358",R ENGENHEIRO PRUDENTE,ENGENHEIRO PRUDENTE
-46.72676382550993,-23.82767898572308,"TERM. PARELHEIROS , 0",R QUINZE/ R GENTIL SCHUNCK ROSCHEL,QUINZE/ R GENTIL SCHUNCK ROSCHEL
-46.56827527205681,-23.50404495330017,"ROD. PRES. DUTRA , 0",RUA SOLDADO GENTIL GUIMARAES/RUA CABO JOÃO FAGUNDES MACHADO,UA SOLDADO GENTIL GUIMARAES/RUA CABO JOÃO FAGUNDES MACHADO
-46.64102042515609,-23.5732098574833,"R. RAMON PENHARRUBIA , 0",Após Viaduto Paraíso,Após Viaduto Paraíso
-46.57400027958034,-23.48778104243514,"AV. MILTON DA ROCHA , 355",AV RAMIZ GALVAO/ R FRANCISCO PEIXOTO BIZERRA,AV RAMIZ GALVAO/ R FRANCISCO PEIXOTO BIZERRA
-46.69952811994358,-23.51931626733268,"TERM. LAPA - PLAT. 4 , 0",VDTO COMENDADOR ELIAS NAGIB BLEIN/ R GUAICURUS,VDTO COMENDADOR ELIAS NAGIB BLEIN/ R GUAICURUS
-46.5770579065404,-23.58925759964315,"AV. ZELINA , 670",R INHAGAPI/ R MANAIAS,INHAGAPI/ R MANAIAS
-46.51199762505322,-23.5389656340727,"R. JOÃO MARCHIORI , 346",TRAV. MANOEL LUCIO TELES DA ROCHA,TRAV. MANOEL LUCIO TELES DA ROCHA
-46.67071478512719,-23.68670244175767,"R. JOSÉ FUGULIM , 340",R JOAO CANDIDO/ R ZIKE TUMA,JOAO CANDIDO/ R ZIKE TUMA
-46.52414055325999,-23.53014070871276,"R. DR. HELÁDIO , 183",RUA OTÍLIA,UA OTÍLIA
-46.50081480911388,-23.5125807192925,"R. EMBIRA , 159",próximo a Av. São Miguel,próximo a Av. São Miguel
-46.61082452802921,-23.61695157524805,"R. D. MACÁRIO , 250",RUA SOLIDEA AVANCI MIATTO,UA SOLIDEA AVANCI MIATTO
-46.7613611394461,-23.65379085294094,"TERM. CAPELINHA - PLAT. 1 , 0",R JOAO FRANCISCO DELMAS/ AV CARLOS CALDEIRA FILHO,JOAO FRANCISCO DELMAS/ AV CARLOS CALDEIRA FILHO
-46.68692998266001,-23.59001991698945,"R. PROF. GERALDO ATALIBA , 42",AV. PRES. JUSCELINO KUBITSCHEK / R. LEOPOLDO COUTO DE MAGALHÃES JÚNIOR,AV. PRES. JUSCELINO KUBITSCHEK / R. LEOPOLDO COUTO DE MAGALHÃES JÚNIOR
-46.5202113540654,-23.59793839533351,"AV. SAPOPEMBA , 8267",R TREZE DE AGOSTO/ R CESAR ESPOSITO,TREZE DE AGOSTO/ R CESAR ESPOSITO
-46.69470839942904,-23.4494045640641,"R. GREGÓRIO POMAR , 213",R SEM NOME/ R FORTUNATO DEVOTO,SEM NOME/ R FORTUNATO DEVOTO
-46.78563667897074,-23.72803659717339,"ESTR. DO EMBU-GUAÇU , 9883",R CONDE DE SILVA MONTEIRO/ R LAURA CAETANO DE SOUZA,CONDE DE SILVA MONTEIRO/ R LAURA CAETANO DE SOUZA
-46.50158770603393,-23.54085259540113,"R. PALMEIRINA , 316",RUA FERREIRA PEIXOTO,UA FERREIRA PEIXOTO
-46.75394656810246,-23.54742230147387,"R. FRANCISCO FERRARI , 140",R ARAO ADLER/ PC WILLIAM KALIL,ARAO ADLER/ PC WILLIAM KALIL
-46.48923263042758,-23.59325732592863,"R. SEN. MAINARD GOMES , 850",R CONEGO ANTONIO DIAS PEQUENO / R CEL ERNESTO DUPRAT,CONEGO ANTONIO DIAS PEQUENO / R CEL ERNESTO DUPRAT
-46.64442298385602,-23.69300733680324,"R. WILSON CANTONI , 321",RUA BELARMINO BELISARIO DE ARAUJO,UA BELARMINO BELISARIO DE ARAUJO
-46.60830647810046,-23.63759347636088,"R. LUÍS GONÇALVES JÚNIOR , 34",R BRIGADEIRO AMILCAR VELOSO PEDERNEIRAS/ R JOSE PEREIRA DE SOUSA,BRIGADEIRO AMILCAR VELOSO PEDERNEIRAS/ R JOSE PEREIRA DE SOUSA
-46.4755290058981,-23.51715562546887,"TERM. A. E. CARVALHO , 0",,
-46.42552843977522,-23.51316449826749,"AC. ACESSO A , 1",PADARIA RAINHA DO LAGEADO,PADARIA RAINHA DO LAGEADO
-46.73500531223139,-23.66764471448521,"TERM. GUARAPIRANGA , 0",R THEODOLINO PEREIRA DE ALMEIDA/ R JOAO DE ABREU,THEODOLINO PEREIRA DE ALMEIDA/ R JOAO DE ABREU
-46.59121307820487,-23.50447801803665,"AV. ALBERTO BYINGTON , 1189",R LOBO MIRANDA/ R LOBO MIRANDA,LOBO MIRANDA/ R LOBO MIRANDA
-46.53562232826442,-23.56771357472714,"AV. HENRIQUE MORIZE , 25",PRAÇA ÂNGELO MARTINS SOBRINHO,PRAÇA ÂNGELO MARTINS SOBRINHO
-46.58398127329593,-23.46509317259746,"R. BENJAMIM PEREIRA , 0",R ANTONIO CESAR NETO/ R SAO LUIZ GONZAGA,ANTONIO CESAR NETO/ R SAO LUIZ GONZAGA
-46.59954865121104,-23.60864257918346,"R. ILÍRIA , 79",Rodovia Anchieta,odovia Anchieta
-46.74046331395965,-23.65392179107048,"R. JOÃO FERNANDES CAMISA NOVA JÚNIOR , 595",R JOSE RODRIGUES GOMES/ R PROFESSOR ANTONIO DE FRANCO,JOSE RODRIGUES GOMES/ R PROFESSOR ANTONIO DE FRANCO
-46.57262094179446,-23.58983558413639,"AV. ZELINA , 1111",R CAMPOS NOVOS/ R DOUTOR ANTONIO MACEDO LIMA,CAMPOS NOVOS/ R DOUTOR ANTONIO MACEDO LIMA
-46.68119024378561,-23.52797917542257,"R. VENÂNCIO AYRES , 407",R TUCUNA/ R COTOXO,TUCUNA/ R COTOXO
-46.61471955076087,-23.60084065809823,"R. VERGUEIRO , 6333",R BELAS ARTES/ AV DOUTOR GENTIL DE MOURA,BELAS ARTES/ AV DOUTOR GENTIL DE MOURA
-46.69014305042837,-23.5624770484563,"R. CARD. ARCOVERDE , 2030",R DEP  LACERDA FRANCO,DEP  LACERDA FRANCO
-46.61321170123763,-23.56070083193954,"R. SERRA DE PARACAINA , 264",R. FREIRE  DA SILVA / AV. DO ESTADO,FREIRE  DA SILVA / AV. DO ESTADO
-46.45437208077389,-23.54729542946745,"R. FONTOURA XAVIER , 769",RUA SENADOR GEORGINO AVELINO,UA SENADOR GEORGINO AVELINO
-46.71229731269367,-23.43170469394715,"AV. FERNANDO MENDES DE ALMEIDA , 541",RUA BARRA DA BURIQUIOCA/ RUA GOVERNADOR RODRIGO HENRIQUES,UA BARRA DA BURIQUIOCA/ RUA GOVERNADOR RODRIGO HENRIQUES
-46.75080794903664,-23.44390375162795,"R. MIGUEL RIBAS , 732",VEL QUATRO/ VEL C,VEL QUATRO/ VEL C
-46.63523422906921,-23.64430352538173,"R. OURICANA , 272",R PAMPA/ R OCARINA,PAMPA/ R OCARINA
-46.69973243196534,-23.71844038682957,"R. FREDERICO RENÉ DE JAEGHER , 109",R JOAO DOS SANTOS ARAUJO/ AV SENADOR TEOTONIO VILELA,JOAO DOS SANTOS ARAUJO/ AV SENADOR TEOTONIO VILELA
-46.66714020387813,-23.57390093064565,"AV. NOVE DE JULHO , 4277",AV BRASIL/ R ESPERIA,AV BRASIL/ R ESPERIA
-46.50607170687122,-23.52958965866386,"R. PALMEIRA DAS MISSÕES , 257",RUA ITAOCARA / RUA SALGUEIRO,UA ITAOCARA / RUA SALGUEIRO
-46.62698310028445,-23.70165924742461,"R. VICENTE STRICHALSKY , 86",PAS. TRES (J. MURAYAMA-S AMA),PAS. TRES (J. MURAYAMA-S AMA)
-46.38007081773279,-23.51446036073172,"R. ITAJUIBE , 3981",R MANOEL RODRIGUES SANTIAGO / R LAGOA DO BIRIBA,MANOEL RODRIGUES SANTIAGO / R LAGOA DO BIRIBA
-46.39586143691493,-23.58708408183816,"R. DOS TÊXTEIS , 3679",RUA JOSE FRANCISCO BRANDÃO / RUA NAYLOR DE OLIVEIRA,UA JOSE FRANCISCO BRANDÃO / RUA NAYLOR DE OLIVEIRA
-46.6871373406822,-23.48513938308982,"AV. JOÃO PAULO PRIMEIRO , 1000",R CAP. ANTONIO AZEVEDO/ R STA ROSA DO VITERBO,CAP. ANTONIO AZEVEDO/ R STA ROSA DO VITERBO
