{
"type": "FeatureCollection",
"name": "FEIRAS_LIVRES_processado",
"crs": { "type": "name", "properties": { "name": "urn:ogc:def:crs:OGC:1.3:CRS84" } },
"features": [
{ "type": "Feature", "properties": { "eq_nome": "MANDAQUI", "eq_enderec": "RUA GENERAL JOSE ALMEIDA BOTELHO S/N", "eq_bairro": "", "eq_cep": "", "eq_horario": "", "eq_telefon": "", "eq_regiao": "", "eq_distrit": "", "eq_subpref": "", "eq_esfera": "SEM ESFERA", "eq_classe": "FEIRAS_LIVRES", "eq_rede": "SEM REDE", "eq_tipo": "SEM TIPO" }, "geometry": { "type": "Point", "coordinates": [ -46.632992935842559, -23.470371026618608 ] } },
{ "type": "Feature", "properties": { "eq_nome": "SANTA INES", "eq_enderec": "RUA ANA DE BARROS S/N", "eq_bairro": "", "eq_cep": "", "eq_horario": "", "eq_telefon": "", "eq_regiao": "", "eq_distrit": "", "eq_subpref": "", "eq_esfera": "SEM ESFERA", "eq_classe": "FEIRAS_LIVRES", "eq_rede": "SEM REDE", "eq_tipo": "SEM TIPO" }, "geometry": { "type": "Point", "coordinates": [ -46.631520881104755, -23.469350020205152 ] } },
{ "type": "Feature", "properties": { "eq_nome": "SANTO ANTONIO", "eq_enderec": "PRACA  SALVADOR TOLEZANO S/N", "eq_bairro": "", "eq_cep": "", "eq_horario": "", "eq_telefon": "", "eq_regiao": "", "eq_distrit": "", "eq_subpref": "", "eq_esfera": "SEM ESFERA", "eq_classe": "FEIRAS_LIVRES", "eq_rede": "SEM REDE", "eq_tipo": "SEM TIPO" }, "geometry": { "type": "Point", "coordinates": [ -46.636864925635884, -23.469878994752374 ] } },
{ "type": "Feature", "properties": { "eq_nome": "JOAO PESSOA", "eq_enderec": "RUA RIBEIRAO DO SALTO S/N", "eq_bairro": "", "eq_cep": "", "eq_horario": "", "eq_telefon": "", "eq_regiao": "", "eq_distrit": "", "eq_subpref": "", "eq_esfera": "SEM ESFERA", "eq_classe": "FEIRAS_LIVRES", "eq_rede": "SEM REDE", "eq_tipo": "SEM TIPO" }, "geometry": { "type": "Point", "coordinates": [ -46.650462922024992, -23.479615990576669 ] } },
{ "type": "Feature", "properties": { "eq_nome": "HERISON", "eq_enderec": "RUA HERISON S/N", "eq_bairro": "", "eq_cep": "", "eq_horario": "", "eq_telefon": "", "eq_regiao": "", "eq_distrit": "", "eq_subpref": "", "eq_esfera": "SEM ESFERA", "eq_classe": "FEIRAS_LIVRES", "eq_rede": "SEM REDE", "eq_tipo": "SEM TIPO" }, "geometry": { "type": "Point", "coordinates": [ -46.643745979166155, -23.47191302021055 ] } },
{ "type": "Feature", "properties": { "eq_nome": "ENGENHEIRO CAETANO ALVARES", "eq_enderec": "AVENIDA ENGENHEIRO CAETANO ALVARES6550", "eq_bairro": "", "eq_cep": "", "eq_horario": "", "eq_telefon": "", "eq_regiao": "", "eq_distrit": "", "eq_subpref": "", "eq_esfera": "SEM ESFERA", "eq_classe": "FEIRAS_LIVRES", "eq_rede": "SEM REDE", "eq_tipo": "SEM TIPO" }, "geometry": { "type": "Point", "coordinates": [ -46.627704778170674, -23.479136233034026 ] } },
{ "type": "Feature", "properties": { "eq_nome": "ALTO DO MANDAQUI", "eq_enderec": "RUA ALVARO GOMES S/N", "eq_bairro": "", "eq_cep": "", "eq_horario": "", "eq_telefon": "", "eq_regiao": "", "eq_distrit": "", "eq_subpref": "", "eq_esfera": "SEM ESFERA", "eq_classe": "FEIRAS_LIVRES", "eq_rede": "SEM REDE", "eq_tipo": "SEM TIPO" }, "geometry": { "type": "Point", "coordinates": [ -46.633850969008172, -23.474765972800459 ] } },
{ "type": "Feature", "properties": { "eq_nome": "SANTANA", "eq_enderec": "AVENIDA  ENGENHEIRO CAETANO ALVARES S/N", "eq_bairro": "", "eq_cep": "", "eq_horario": "", "eq_telefon": "", "eq_regiao": "", "eq_distrit": "", "eq_subpref": "", "eq_esfera": "SEM ESFERA", "eq_classe": "FEIRAS_LIVRES", "eq_rede": "SEM REDE", "eq_tipo": "SEM TIPO" }, "geometry": { "type": "Point", "coordinates": [ -46.626197899328176, -23.4738349534687 ] } },
{ "type": "Feature", "properties": { "eq_nome": "VILA AURORA", "eq_enderec": "RUA ALBERTINA VIEIRA DA S GORDO S/N", "eq_bairro": "", "eq_cep": "", "eq_horario": "", "eq_telefon": "", "eq_regiao": "", "eq_distrit": "", "eq_subpref": "", "eq_esfera": "SEM ESFERA", "eq_classe": "FEIRAS_LIVRES", "eq_rede": "SEM REDE", "eq_tipo": "SEM TIPO" }, "geometry": { "type": "Point", "coordinates": [ -46.623151882003718, -23.475101968497384 ] } },
{ "type": "Feature", "properties": { "eq_nome": "MANDAQUI", "eq_enderec": "AVENIDA  ENGENHEIRO CAETANO ALVARES S/N", "eq_bairro": "", "eq_cep": "", "eq_horario": "", "eq_telefon": "", "eq_regiao": "", "eq_distrit": "", "eq_subpref": "", "eq_esfera": "SEM ESFERA", "eq_classe": "FEIRAS_LIVRES", "eq_rede": "SEM REDE", "eq_tipo": "SEM TIPO" }, "geometry": { "type": "Point", "coordinates": [ -46.632351246679711, -23.482470057791929 ] } },
{ "type": "Feature", "properties": { "eq_nome": "TOLEDO BARBOSA", "eq_enderec": "RUA BELARMINO MATOS S/N", "eq_bairro": "", "eq_cep": "", "eq_horario": "", "eq_telefon": "", "eq_regiao": "", "eq_distrit": "", "eq_subpref": "", "eq_esfera": "SEM ESFERA", "eq_classe": "FEIRAS_LIVRES", "eq_rede": "SEM REDE", "eq_tipo": "SEM TIPO" }, "geometry": { "type": "Point", "coordinates": [ -46.599398705458754, -23.546471267144927 ] } },
{ "type": "Feature", "properties": { "eq_nome": "FERNANDES FALCAO", "eq_enderec": "RUA PIRES DE CAMPOS24", "eq_bairro": "", "eq_cep": "", "eq_horario": "", "eq_telefon": "", "eq_regiao": "", "eq_distrit": "", "eq_subpref": "", "eq_esfera": "SEM ESFERA", "eq_classe": "FEIRAS_LIVRES", "eq_rede": "SEM REDE", "eq_tipo": "SEM TIPO" }, "geometry": { "type": "Point", "coordinates": [ -46.592257672156371, -23.557399287915938 ] } },
{ "type": "Feature", "properties": { "eq_nome": "AGUA RASA", "eq_enderec": "RUA DECIO ABRAMO17", "eq_bairro": "", "eq_cep": "", "eq_horario": "", "eq_telefon": "", "eq_regiao": "", "eq_distrit": "", "eq_subpref": "", "eq_esfera": "SEM ESFERA", "eq_classe": "FEIRAS_LIVRES", "eq_rede": "SEM REDE", "eq_tipo": "SEM TIPO" }, "geometry": { "type": "Point", "coordinates": [ -46.588735698579057, -23.557592267151836 ] } },
{ "type": "Feature", "properties": { "eq_nome": "MOOCA", "eq_enderec": "RUA MADRE DE DEUS604", "eq_bairro": "", "eq_cep": "", "eq_horario": "", "eq_telefon": "", "eq_regiao": "", "eq_distrit": "", "eq_subpref": "", "eq_esfera": "SEM ESFERA", "eq_classe": "FEIRAS_LIVRES", "eq_rede": "SEM REDE", "eq_tipo": "SEM TIPO" }, "geometry": { "type": "Point", "coordinates": [ -46.59676476346938, -23.561198297967138 ] } },
{ "type": "Feature", "properties": { "eq_nome": "TRILHOS", "eq_enderec": "RUA PROF MACHADO TOLOSA S/N", "eq_bairro": "", "eq_cep": "", "eq_horario": "", "eq_telefon": "", "eq_regiao": "", "eq_distrit": "", "eq_subpref": "", "eq_esfera": "SEM ESFERA", "eq_classe": "FEIRAS_LIVRES", "eq_rede": "SEM REDE", "eq_tipo": "SEM TIPO" }, "geometry": { "type": "Point", "coordinates": [ -46.591432717423537, -23.548180267317324 ] } },
{ "type": "Feature", "properties": { "eq_nome": "RUA DOS TRILHOS", "eq_enderec": "RUA DOS TRILHOS", "eq_bairro": "", "eq_cep": "", "eq_horario": "", "eq_telefon": "", "eq_regiao": "", "eq_distrit": "", "eq_subpref": "", "eq_esfera": "SEM ESFERA", "eq_classe": "FEIRAS_LIVRES", "eq_rede": "SEM REDE", "eq_tipo": "SEM TIPO" }, "geometry": { "type": "Point", "coordinates": [ -46.59993017873532, -23.552660746216045 ] } },
{ "type": "Feature", "properties": { "eq_nome": "PARQUE DA MOOCA", "eq_enderec": "RUA CONDE PRATES10", "eq_bairro": "", "eq_cep": "", "eq_horario": "", "eq_telefon": "", "eq_regiao": "", "eq_distrit": "", "eq_subpref": "", "eq_esfera": "SEM ESFERA", "eq_classe": "FEIRAS_LIVRES", "eq_rede": "SEM REDE", "eq_tipo": "SEM TIPO" }, "geometry": { "type": "Point", "coordinates": [ -46.598257685492641, -23.56600536538647 ] } },
{ "type": "Feature", "properties": { "eq_nome": "RUA DOS TRILHOS", "eq_enderec": "RUA DOS TRILHOS", "eq_bairro": "", "eq_cep": "", "eq_horario": "", "eq_telefon": "", "eq_regiao": "", "eq_distrit": "", "eq_subpref": "", "eq_esfera": "SEM ESFERA", "eq_classe": "FEIRAS_LIVRES", "eq_rede": "SEM REDE", "eq_tipo": "SEM TIPO" }, "geometry": { "type": "Point", "coordinates": [ -46.598769686867051, -23.55295957839008 ] } },
{ "type": "Feature", "properties": { "eq_nome": "VILA PRUDENTE", "eq_enderec": "RUA DOMINGOS DA FONSECA321", "eq_bairro": "", "eq_cep": "", "eq_horario": "", "eq_telefon": "", "eq_regiao": "", "eq_distrit": "", "eq_subpref": "", "eq_esfera": "SEM ESFERA", "eq_classe": "FEIRAS_LIVRES", "eq_rede": "SEM REDE", "eq_tipo": "SEM TIPO" }, "geometry": { "type": "Point", "coordinates": [ -46.589175800067444, -23.575451375722238 ] } },
{ "type": "Feature", "properties": { "eq_nome": "RUA DOS TRILHOS", "eq_enderec": "RUA DOS TRILHOS", "eq_bairro": "", "eq_cep": "", "eq_horario": "", "eq_telefon": "", "eq_regiao": "", "eq_distrit": "", "eq_subpref": "", "eq_esfera": "SEM ESFERA", "eq_classe": "FEIRAS_LIVRES", "eq_rede": "SEM REDE", "eq_tipo": "SEM TIPO" }, "geometry": { "type": "Point", "coordinates": [ -46.599848389468221, -23.552685337696541 ] } },
{ "type": "Feature", "properties": { "eq_nome": "MOOCA", "eq_enderec": "RUA TABAJARAS S/N", "eq_bairro": "", "eq_cep": "", "eq_horario": "", "eq_telefon": "", "eq_regiao": "", "eq_distrit": "", "eq_subpref": "", "eq_esfera": "SEM ESFERA", "eq_classe": "FEIRAS_LIVRES", "eq_rede": "SEM REDE", "eq_tipo": "SEM TIPO" }, "geometry": { "type": "Point", "coordinates": [ -46.599960695891063, -23.563407321229448 ] } },
{ "type": "Feature", "properties": { "eq_nome": "FEIRA LIVRE SAO RAFAEL", "eq_enderec": "RUA CABOQUENAS", "eq_bairro": "", "eq_cep": "", "eq_horario": "", "eq_telefon": "", "eq_regiao": "", "eq_distrit": "", "eq_subpref": "", "eq_esfera": "SEM ESFERA", "eq_classe": "FEIRAS_LIVRES", "eq_rede": "SEM REDE", "eq_tipo": "SEM TIPO" }, "geometry": { "type": "Point", "coordinates": [ -46.602346364974508, -23.558033239033687 ] } },
{ "type": "Feature", "properties": { "eq_nome": "CIDADE ADEMAR", "eq_enderec": "RUA ANTONIO DE PINHO AZEVEDO S/N", "eq_bairro": "", "eq_cep": "", "eq_horario": "", "eq_telefon": "", "eq_regiao": "", "eq_distrit": "", "eq_subpref": "", "eq_esfera": "SEM ESFERA", "eq_classe": "FEIRAS_LIVRES", "eq_rede": "SEM REDE", "eq_tipo": "SEM TIPO" }, "geometry": { "type": "Point", "coordinates": [ -46.653660025445546, -23.665001616820707 ] } },
{ "type": "Feature", "properties": { "eq_nome": "JARDIM VILAS BOAS", "eq_enderec": "RUA LUIS STOLB S/N", "eq_bairro": "", "eq_cep": "", "eq_horario": "", "eq_telefon": "", "eq_regiao": "", "eq_distrit": "", "eq_subpref": "", "eq_esfera": "SEM ESFERA", "eq_classe": "FEIRAS_LIVRES", "eq_rede": "SEM REDE", "eq_tipo": "SEM TIPO" }, "geometry": { "type": "Point", "coordinates": [ -46.641510962451157, -23.674591698476966 ] } },
{ "type": "Feature", "properties": { "eq_nome": "JARDIM MIRIAM", "eq_enderec": "AVENIDA  ANGELO CRISTIANINI32", "eq_bairro": "", "eq_cep": "", "eq_horario": "", "eq_telefon": "", "eq_regiao": "", "eq_distrit": "", "eq_subpref": "", "eq_esfera": "SEM ESFERA", "eq_classe": "FEIRAS_LIVRES", "eq_rede": "SEM REDE", "eq_tipo": "SEM TIPO" }, "geometry": { "type": "Point", "coordinates": [ -46.63785088806128, -23.68108375148822 ] } },
{ "type": "Feature", "properties": { "eq_nome": "JARDIM MIRIAM", "eq_enderec": "RUA BRAS DE ABREU S/N", "eq_bairro": "", "eq_cep": "", "eq_horario": "", "eq_telefon": "", "eq_regiao": "", "eq_distrit": "", "eq_subpref": "", "eq_esfera": "SEM ESFERA", "eq_classe": "FEIRAS_LIVRES", "eq_rede": "SEM REDE", "eq_tipo": "SEM TIPO" }, "geometry": { "type": "Point", "coordinates": [ -46.640760970877096, -23.679745741711585 ] } },
{ "type": "Feature", "properties": { "eq_nome": "VISCONDE DE STA ISABEL", "eq_enderec": "RUA VISCONDE DE STA ISABEL", "eq_bairro": "", "eq_cep": "", "eq_horario": "", "eq_telefon": "", "eq_regiao": "", "eq_distrit": "", "eq_subpref": "", "eq_esfera": "SEM ESFERA", "eq_classe": "FEIRAS_LIVRES", "eq_rede": "SEM REDE", "eq_tipo": "SEM TIPO" }, "geometry": { "type": "Point", "coordinates": [ -46.65584007652015, -23.663786629226347 ] } },
{ "type": "Feature", "properties": { "eq_nome": "VILA CONSTANCIA", "eq_enderec": "RUA SALVADOR RODRIGUES NEGRAO38", "eq_bairro": "", "eq_cep": "", "eq_horario": "", "eq_telefon": "", "eq_regiao": "", "eq_distrit": "", "eq_subpref": "", "eq_esfera": "SEM ESFERA", "eq_classe": "FEIRAS_LIVRES", "eq_rede": "SEM REDE", "eq_tipo": "SEM TIPO" }, "geometry": { "type": "Point", "coordinates": [ -46.666237076979669, -23.669488635277659 ] } },
{ "type": "Feature", "properties": { "eq_nome": "VILA MISSIONARIA", "eq_enderec": "RUA RAINHA DAS MISSOES 15-A", "eq_bairro": "", "eq_cep": "", "eq_horario": "", "eq_telefon": "", "eq_regiao": "", "eq_distrit": "", "eq_subpref": "", "eq_esfera": "SEM ESFERA", "eq_classe": "FEIRAS_LIVRES", "eq_rede": "SEM REDE", "eq_tipo": "SEM TIPO" }, "geometry": { "type": "Point", "coordinates": [ -46.647240946947043, -23.687243732453165 ] } },
{ "type": "Feature", "properties": { "eq_nome": "JARDIM VILA LUCIA", "eq_enderec": "RUA DELFINO FACCHINA28", "eq_bairro": "", "eq_cep": "", "eq_horario": "", "eq_telefon": "", "eq_regiao": "", "eq_distrit": "", "eq_subpref": "", "eq_esfera": "SEM ESFERA", "eq_classe": "FEIRAS_LIVRES", "eq_rede": "SEM REDE", "eq_tipo": "SEM TIPO" }, "geometry": { "type": "Point", "coordinates": [ -46.653944054226905, -23.681514734924683 ] } },
{ "type": "Feature", "properties": { "eq_nome": "VILA JOANISA", "eq_enderec": "RUA ESTANISLAU MONIUSKO1069", "eq_bairro": "", "eq_cep": "", "eq_horario": "", "eq_telefon": "", "eq_regiao": "", "eq_distrit": "", "eq_subpref": "", "eq_esfera": "SEM ESFERA", "eq_classe": "FEIRAS_LIVRES", "eq_rede": "SEM REDE", "eq_tipo": "SEM TIPO" }, "geometry": { "type": "Point", "coordinates": [ -46.659627027157327, -23.675919665011953 ] } },
{ "type": "Feature", "properties": { "eq_nome": "JARDIM NITEROI", "eq_enderec": "RUA EDUARDO PEREIRA RAMOS101", "eq_bairro": "", "eq_cep": "", "eq_horario": "", "eq_telefon": "", "eq_regiao": "", "eq_distrit": "", "eq_subpref": "", "eq_esfera": "SEM ESFERA", "eq_classe": "FEIRAS_LIVRES", "eq_rede": "SEM REDE", "eq_tipo": "SEM TIPO" }, "geometry": { "type": "Point", "coordinates": [ -46.662322071662025, -23.686491701758452 ] } },
{ "type": "Feature", "properties": { "eq_nome": "CASA PALMA", "eq_enderec": "AVENIDA  CUPECE25", "eq_bairro": "", "eq_cep": "", "eq_horario": "", "eq_telefon": "", "eq_regiao": "", "eq_distrit": "", "eq_subpref": "", "eq_esfera": "SEM ESFERA", "eq_classe": "FEIRAS_LIVRES", "eq_rede": "SEM REDE", "eq_tipo": "SEM TIPO" }, "geometry": { "type": "Point", "coordinates": [ -46.669544134329243, -23.65376057677469 ] } },
{ "type": "Feature", "properties": { "eq_nome": "JARDIM PRUDENCIA", "eq_enderec": "RUA MARIA JOSE RANGEL649", "eq_bairro": "", "eq_cep": "", "eq_horario": "", "eq_telefon": "", "eq_regiao": "", "eq_distrit": "", "eq_subpref": "", "eq_esfera": "SEM ESFERA", "eq_classe": "FEIRAS_LIVRES", "eq_rede": "SEM REDE", "eq_tipo": "SEM TIPO" }, "geometry": { "type": "Point", "coordinates": [ -46.672049075470746, -23.656475552267199 ] } },
{ "type": "Feature", "properties": { "eq_nome": "VILA FILOMENA", "eq_enderec": "RUA JOAO GOMES BATISTA419", "eq_bairro": "", "eq_cep": "", "eq_horario": "", "eq_telefon": "", "eq_regiao": "", "eq_distrit": "", "eq_subpref": "", "eq_esfera": "SEM ESFERA", "eq_classe": "FEIRAS_LIVRES", "eq_rede": "SEM REDE", "eq_tipo": "SEM TIPO" }, "geometry": { "type": "Point", "coordinates": [ -46.667759112880944, -23.659687633675826 ] } },
{ "type": "Feature", "properties": { "eq_nome": "VILA RICA", "eq_enderec": "AVENIDA  CELSO DOS SANTOS S/N", "eq_bairro": "", "eq_cep": "", "eq_horario": "", "eq_telefon": "", "eq_regiao": "", "eq_distrit": "", "eq_subpref": "", "eq_esfera": "SEM ESFERA", "eq_classe": "FEIRAS_LIVRES", "eq_rede": "SEM REDE", "eq_tipo": "SEM TIPO" }, "geometry": { "type": "Point", "coordinates": [ -46.66996910355094, -23.665508632115824 ] } },
{ "type": "Feature", "properties": { "eq_nome": "JARDIM MARAJOARA", "eq_enderec": "RUA JUCA DE AZEVEDO33", "eq_bairro": "", "eq_cep": "", "eq_horario": "", "eq_telefon": "", "eq_regiao": "", "eq_distrit": "", "eq_subpref": "", "eq_esfera": "SEM ESFERA", "eq_classe": "FEIRAS_LIVRES", "eq_rede": "SEM REDE", "eq_tipo": "SEM TIPO" }, "geometry": { "type": "Point", "coordinates": [ -46.677283144915805, -23.658882568884099 ] } },
{ "type": "Feature", "properties": { "eq_nome": "VILA MAZZEI", "eq_enderec": "RUA MANOEL GAYA S/N", "eq_bairro": "", "eq_cep": "", "eq_horario": "", "eq_telefon": "", "eq_regiao": "", "eq_distrit": "", "eq_subpref": "", "eq_esfera": "SEM ESFERA", "eq_classe": "FEIRAS_LIVRES", "eq_rede": "SEM REDE", "eq_tipo": "SEM TIPO" }, "geometry": { "type": "Point", "coordinates": [ -46.603146772398134, -23.462028947839858 ] } },
{ "type": "Feature", "properties": { "eq_nome": "TREMEMBE", "eq_enderec": "PRACA  DONA MARIQUINHA SCIASCIA S/N", "eq_bairro": "", "eq_cep": "", "eq_horario": "", "eq_telefon": "", "eq_regiao": "", "eq_distrit": "", "eq_subpref": "", "eq_esfera": "SEM ESFERA", "eq_classe": "FEIRAS_LIVRES", "eq_rede": "SEM REDE", "eq_tipo": "SEM TIPO" }, "geometry": { "type": "Point", "coordinates": [ -46.623276859642765, -23.458846907464046 ] } },
{ "type": "Feature", "properties": { "eq_nome": "TREMEMBE", "eq_enderec": "RUA ALMEIDA MERCES S/N", "eq_bairro": "", "eq_cep": "", "eq_horario": "", "eq_telefon": "", "eq_regiao": "", "eq_distrit": "", "eq_subpref": "", "eq_esfera": "SEM ESFERA", "eq_classe": "FEIRAS_LIVRES", "eq_rede": "SEM REDE", "eq_tipo": "SEM TIPO" }, "geometry": { "type": "Point", "coordinates": [ -46.621891871007762, -23.459831906688137 ] } },
{ "type": "Feature", "properties": { "eq_nome": "FURNAS", "eq_enderec": "AVENIDA  ANTONELO DA MESSINA S/N", "eq_bairro": "", "eq_cep": "", "eq_horario": "", "eq_telefon": "", "eq_regiao": "", "eq_distrit": "", "eq_subpref": "", "eq_esfera": "SEM ESFERA", "eq_classe": "FEIRAS_LIVRES", "eq_rede": "SEM REDE", "eq_tipo": "SEM TIPO" }, "geometry": { "type": "Point", "coordinates": [ -46.589587694191415, -23.442952838260734 ] } },
{ "type": "Feature", "properties": { "eq_nome": "PENAFORTE", "eq_enderec": "RUA PENAFORTE S/N", "eq_bairro": "", "eq_cep": "", "eq_horario": "", "eq_telefon": "", "eq_regiao": "", "eq_distrit": "", "eq_subpref": "", "eq_esfera": "SEM ESFERA", "eq_classe": "FEIRAS_LIVRES", "eq_rede": "SEM REDE", "eq_tipo": "SEM TIPO" }, "geometry": { "type": "Point", "coordinates": [ -46.593941688639525, -23.452472929263706 ] } },
{ "type": "Feature", "properties": { "eq_nome": "VILA ALBERTINA", "eq_enderec": "RUA MAESTRO BORTOLUCCI S/N", "eq_bairro": "", "eq_cep": "", "eq_horario": "", "eq_telefon": "", "eq_regiao": "", "eq_distrit": "", "eq_subpref": "", "eq_esfera": "SEM ESFERA", "eq_classe": "FEIRAS_LIVRES", "eq_rede": "SEM REDE", "eq_tipo": "SEM TIPO" }, "geometry": { "type": "Point", "coordinates": [ -46.614894842281117, -23.449224914240741 ] } },
{ "type": "Feature", "properties": { "eq_nome": "TEREZA BORTOLO", "eq_enderec": "RUA TEREZA BORTOLO", "eq_bairro": "", "eq_cep": "", "eq_horario": "", "eq_telefon": "", "eq_regiao": "", "eq_distrit": "", "eq_subpref": "", "eq_esfera": "SEM ESFERA", "eq_classe": "FEIRAS_LIVRES", "eq_rede": "SEM REDE", "eq_tipo": "SEM TIPO" }, "geometry": { "type": "Point", "coordinates": [ -46.594234695911894, -23.455264881344441 ] } },
{ "type": "Feature", "properties": { "eq_nome": "CASA DE PEDRA", "eq_enderec": "RUA CEL ESDRAS DE OLIVEIRA S/N", "eq_bairro": "", "eq_cep": "", "eq_horario": "", "eq_telefon": "", "eq_regiao": "", "eq_distrit": "", "eq_subpref": "", "eq_esfera": "SEM ESFERA", "eq_classe": "FEIRAS_LIVRES", "eq_rede": "SEM REDE", "eq_tipo": "SEM TIPO" }, "geometry": { "type": "Point", "coordinates": [ -46.600624723156358, -23.454994901636994 ] } },
{ "type": "Feature", "properties": { "eq_nome": "VILA ALBERTINA", "eq_enderec": "RUA ELIAS DE SOUZA PINTO S/N", "eq_bairro": "", "eq_cep": "", "eq_horario": "", "eq_telefon": "", "eq_regiao": "", "eq_distrit": "", "eq_subpref": "", "eq_esfera": "SEM ESFERA", "eq_classe": "FEIRAS_LIVRES", "eq_rede": "SEM REDE", "eq_tipo": "SEM TIPO" }, "geometry": { "type": "Point", "coordinates": [ -46.613758801670173, -23.448172880009054 ] } },
{ "type": "Feature", "properties": { "eq_nome": "JARDIM JOAMAR", "eq_enderec": "RUA JOSINO VIEIRA GOES S/N", "eq_bairro": "", "eq_cep": "", "eq_horario": "", "eq_telefon": "", "eq_regiao": "", "eq_distrit": "", "eq_subpref": "", "eq_esfera": "SEM ESFERA", "eq_classe": "FEIRAS_LIVRES", "eq_rede": "SEM REDE", "eq_tipo": "SEM TIPO" }, "geometry": { "type": "Point", "coordinates": [ -46.592054718079133, -23.448806838377809 ] } },
{ "type": "Feature", "properties": { "eq_nome": "JARDIM FONTALIS", "eq_enderec": "RUA MANOEL PEREIRA ROSA S/N", "eq_bairro": "", "eq_cep": "", "eq_horario": "", "eq_telefon": "", "eq_regiao": "", "eq_distrit": "", "eq_subpref": "", "eq_esfera": "SEM ESFERA", "eq_classe": "FEIRAS_LIVRES", "eq_rede": "SEM REDE", "eq_tipo": "SEM TIPO" }, "geometry": { "type": "Point", "coordinates": [ -46.577107595950444, -23.43940483099351 ] } },
{ "type": "Feature", "properties": { "eq_nome": "ANA CLARA", "eq_enderec": "RUA PASCOAL RANIERI MAZILI650", "eq_bairro": "", "eq_cep": "", "eq_horario": "", "eq_telefon": "", "eq_regiao": "", "eq_distrit": "", "eq_subpref": "", "eq_esfera": "SEM ESFERA", "eq_classe": "FEIRAS_LIVRES", "eq_rede": "SEM REDE", "eq_tipo": "SEM TIPO" }, "geometry": { "type": "Point", "coordinates": [ -46.527099407409786, -23.609457447185235 ] } },
{ "type": "Feature", "properties": { "eq_nome": "PAULICEIA", "eq_enderec": "RUA HILEIA AMAZONICA420", "eq_bairro": "", "eq_cep": "", "eq_horario": "", "eq_telefon": "", "eq_regiao": "", "eq_distrit": "", "eq_subpref": "", "eq_esfera": "SEM ESFERA", "eq_classe": "FEIRAS_LIVRES", "eq_rede": "SEM REDE", "eq_tipo": "SEM TIPO" }, "geometry": { "type": "Point", "coordinates": [ -46.537821466315272, -23.604111443764388 ] } },
{ "type": "Feature", "properties": { "eq_nome": "VILA REUNIDAS", "eq_enderec": "AVENIDA   MORAIS COSTA1050", "eq_bairro": "", "eq_cep": "", "eq_horario": "", "eq_telefon": "", "eq_regiao": "", "eq_distrit": "", "eq_subpref": "", "eq_esfera": "SEM ESFERA", "eq_classe": "FEIRAS_LIVRES", "eq_rede": "SEM REDE", "eq_tipo": "SEM TIPO" }, "geometry": { "type": "Point", "coordinates": [ -46.534217472375801, -23.61060348316024 ] } },
{ "type": "Feature", "properties": { "eq_nome": "PARQUE SAO LUCAS", "eq_enderec": "RUA CARLOS CESAR S/N", "eq_bairro": "", "eq_cep": "", "eq_horario": "", "eq_telefon": "", "eq_regiao": "", "eq_distrit": "", "eq_subpref": "", "eq_esfera": "SEM ESFERA", "eq_classe": "FEIRAS_LIVRES", "eq_rede": "SEM REDE", "eq_tipo": "SEM TIPO" }, "geometry": { "type": "Point", "coordinates": [ -46.541195544937359, -23.595801420343385 ] } },
{ "type": "Feature", "properties": { "eq_nome": "PARQUE SAO LUCAS", "eq_enderec": "RUA DR JOSE CASSIO SOARES521", "eq_bairro": "", "eq_cep": "", "eq_horario": "", "eq_telefon": "", "eq_regiao": "", "eq_distrit": "", "eq_subpref": "", "eq_esfera": "SEM ESFERA", "eq_classe": "FEIRAS_LIVRES", "eq_rede": "SEM REDE", "eq_tipo": "SEM TIPO" }, "geometry": { "type": "Point", "coordinates": [ -46.547887585493307, -23.598659385095328 ] } },
{ "type": "Feature", "properties": { "eq_nome": "AMAZONIA", "eq_enderec": "RUA NUBIA S/N", "eq_bairro": "", "eq_cep": "", "eq_horario": "", "eq_telefon": "", "eq_regiao": "", "eq_distrit": "", "eq_subpref": "", "eq_esfera": "SEM ESFERA", "eq_classe": "FEIRAS_LIVRES", "eq_rede": "SEM REDE", "eq_tipo": "SEM TIPO" }, "geometry": { "type": "Point", "coordinates": [ -46.528085408644969, -23.601081387219377 ] } },
{ "type": "Feature", "properties": { "eq_nome": "VILA PAULO SILAS", "eq_enderec": "RUA ANTONIO FONTOURA XAVIER S/N", "eq_bairro": "", "eq_cep": "", "eq_horario": "", "eq_telefon": "", "eq_regiao": "", "eq_distrit": "", "eq_subpref": "", "eq_esfera": "SEM ESFERA", "eq_classe": "FEIRAS_LIVRES", "eq_rede": "SEM REDE", "eq_tipo": "SEM TIPO" }, "geometry": { "type": "Point", "coordinates": [ -46.544447539282729, -23.589919319897174 ] } },
{ "type": "Feature", "properties": { "eq_nome": "PARQUE SAO LUCAS", "eq_enderec": "RUA DOMINGOS PIRES BRITO S/N", "eq_bairro": "", "eq_cep": "", "eq_horario": "", "eq_telefon": "", "eq_regiao": "", "eq_distrit": "", "eq_subpref": "", "eq_esfera": "SEM ESFERA", "eq_classe": "FEIRAS_LIVRES", "eq_rede": "SEM REDE", "eq_tipo": "SEM TIPO" }, "geometry": { "type": "Point", "coordinates": [ -46.5495315883404, -23.587724385220248 ] } },
{ "type": "Feature", "properties": { "eq_nome": "INDEPENDENCIA", "eq_enderec": "RUA ERNESTO DOS SANTOS S/N", "eq_bairro": "", "eq_cep": "", "eq_horario": "", "eq_telefon": "", "eq_regiao": "", "eq_distrit": "", "eq_subpref": "", "eq_esfera": "SEM ESFERA", "eq_classe": "FEIRAS_LIVRES", "eq_rede": "SEM REDE", "eq_tipo": "SEM TIPO" }, "geometry": { "type": "Point", "coordinates": [ -46.560513617896056, -23.584142307621178 ] } },
{ "type": "Feature", "properties": { "eq_nome": "JARDIM INDEPENDENCIA", "eq_enderec": "RUA SECUNDINO DOMINGUES770", "eq_bairro": "", "eq_cep": "", "eq_horario": "", "eq_telefon": "", "eq_regiao": "", "eq_distrit": "", "eq_subpref": "", "eq_esfera": "SEM ESFERA", "eq_classe": "FEIRAS_LIVRES", "eq_rede": "SEM REDE", "eq_tipo": "SEM TIPO" }, "geometry": { "type": "Point", "coordinates": [ -46.55474762826087, -23.593335372334376 ] } },
{ "type": "Feature", "properties": { "eq_nome": "JARDIM TIALHA", "eq_enderec": "RUA PINTO DA LUZ329", "eq_bairro": "", "eq_cep": "", "eq_horario": "", "eq_telefon": "", "eq_regiao": "", "eq_distrit": "", "eq_subpref": "", "eq_esfera": "SEM ESFERA", "eq_classe": "FEIRAS_LIVRES", "eq_rede": "SEM REDE", "eq_tipo": "SEM TIPO" }, "geometry": { "type": "Point", "coordinates": [ -46.551738573541172, -23.577859368384331 ] } },
{ "type": "Feature", "properties": { "eq_nome": "VILA EMA", "eq_enderec": "RUA PDE PEDRO MAGNONI511", "eq_bairro": "", "eq_cep": "", "eq_horario": "", "eq_telefon": "", "eq_regiao": "", "eq_distrit": "", "eq_subpref": "", "eq_esfera": "SEM ESFERA", "eq_classe": "FEIRAS_LIVRES", "eq_rede": "SEM REDE", "eq_tipo": "SEM TIPO" }, "geometry": { "type": "Point", "coordinates": [ -46.534848493417144, -23.59140139056462 ] } },
{ "type": "Feature", "properties": { "eq_nome": "VILA DIVA", "eq_enderec": "RUA SOLIDONIO LEITE131", "eq_bairro": "", "eq_cep": "", "eq_horario": "", "eq_telefon": "", "eq_regiao": "", "eq_distrit": "", "eq_subpref": "", "eq_esfera": "SEM ESFERA", "eq_classe": "FEIRAS_LIVRES", "eq_rede": "SEM REDE", "eq_tipo": "SEM TIPO" }, "geometry": { "type": "Point", "coordinates": [ -46.556145580230442, -23.577572371058292 ] } },
{ "type": "Feature", "properties": { "eq_nome": "VILA GUARANI", "eq_enderec": "RUA JOAO RODRIGUES PIRES680", "eq_bairro": "", "eq_cep": "", "eq_horario": "", "eq_telefon": "", "eq_regiao": "", "eq_distrit": "", "eq_subpref": "", "eq_esfera": "SEM ESFERA", "eq_classe": "FEIRAS_LIVRES", "eq_rede": "SEM REDE", "eq_tipo": "SEM TIPO" }, "geometry": { "type": "Point", "coordinates": [ -46.535946441891568, -23.583145372894418 ] } },
{ "type": "Feature", "properties": { "eq_nome": "FAZENDA DA JUTA", "eq_enderec": "RUA AUGUSTIN LUBERTI S/N", "eq_bairro": "", "eq_cep": "", "eq_horario": "", "eq_telefon": "", "eq_regiao": "", "eq_distrit": "", "eq_subpref": "", "eq_esfera": "SEM ESFERA", "eq_classe": "FEIRAS_LIVRES", "eq_rede": "SEM REDE", "eq_tipo": "SEM TIPO" }, "geometry": { "type": "Point", "coordinates": [ -46.486998266280693, -23.618018474440564 ] } },
{ "type": "Feature", "properties": { "eq_nome": "JARDIM NOVA SAPOPEMBA", "eq_enderec": "RUA CARLO COCCIA S/N", "eq_bairro": "", "eq_cep": "", "eq_horario": "", "eq_telefon": "", "eq_regiao": "", "eq_distrit": "", "eq_subpref": "", "eq_esfera": "SEM ESFERA", "eq_classe": "FEIRAS_LIVRES", "eq_rede": "SEM REDE", "eq_tipo": "SEM TIPO" }, "geometry": { "type": "Point", "coordinates": [ -46.491985930580711, -23.621812503170602 ] } },
{ "type": "Feature", "properties": { "eq_nome": "JARDIM SAPOPEMBA", "eq_enderec": "RUA JOAO LOPES DE LIMA300", "eq_bairro": "", "eq_cep": "", "eq_horario": "", "eq_telefon": "", "eq_regiao": "", "eq_distrit": "", "eq_subpref": "", "eq_esfera": "SEM ESFERA", "eq_classe": "FEIRAS_LIVRES", "eq_rede": "SEM REDE", "eq_tipo": "SEM TIPO" }, "geometry": { "type": "Point", "coordinates": [ -46.498518324394766, -23.61314345440487 ] } },
{ "type": "Feature", "properties": { "eq_nome": "TTE GODOFREDO CERQUEIRA LEITE", "eq_enderec": "RUA TENETE GODOFREDO CERQUEIRA LEITE", "eq_bairro": "", "eq_cep": "", "eq_horario": "", "eq_telefon": "", "eq_regiao": "", "eq_distrit": "", "eq_subpref": "", "eq_esfera": "SEM ESFERA", "eq_classe": "FEIRAS_LIVRES", "eq_rede": "SEM REDE", "eq_tipo": "SEM TIPO" }, "geometry": { "type": "Point", "coordinates": [ -46.497695320023553, -23.614698436105019 ] } },
{ "type": "Feature", "properties": { "eq_nome": "VICTORIA MARCONATO ZONTA", "eq_enderec": "RUA VICTORIA MARCONATO ZONTA", "eq_bairro": "", "eq_cep": "", "eq_horario": "", "eq_telefon": "", "eq_regiao": "", "eq_distrit": "", "eq_subpref": "", "eq_esfera": "SEM ESFERA", "eq_classe": "FEIRAS_LIVRES", "eq_rede": "SEM REDE", "eq_tipo": "SEM TIPO" }, "geometry": { "type": "Point", "coordinates": [ -46.493385301499835, -23.610007462474204 ] } },
{ "type": "Feature", "properties": { "eq_nome": "PARQUE SANTA MADALENA", "eq_enderec": "RUA ALM OTACILIO CUNHA S/N", "eq_bairro": "", "eq_cep": "", "eq_horario": "", "eq_telefon": "", "eq_regiao": "", "eq_distrit": "", "eq_subpref": "", "eq_esfera": "SEM ESFERA", "eq_classe": "FEIRAS_LIVRES", "eq_rede": "SEM REDE", "eq_tipo": "SEM TIPO" }, "geometry": { "type": "Point", "coordinates": [ -46.505780387114356, -23.612815431101495 ] } },
{ "type": "Feature", "properties": { "eq_nome": "TOME DA ROCHA", "eq_enderec": "RUA TOME DA ROCHA", "eq_bairro": "", "eq_cep": "", "eq_horario": "", "eq_telefon": "", "eq_regiao": "", "eq_distrit": "", "eq_subpref": "", "eq_esfera": "SEM ESFERA", "eq_classe": "FEIRAS_LIVRES", "eq_rede": "SEM REDE", "eq_tipo": "SEM TIPO" }, "geometry": { "type": "Point", "coordinates": [ -46.51095648131659, -23.618331490425238 ] } },
{ "type": "Feature", "properties": { "eq_nome": "SERRA DE CAPIVARUCU", "eq_enderec": "RUA AGUIAS REAIS S/N", "eq_bairro": "", "eq_cep": "", "eq_horario": "", "eq_telefon": "", "eq_regiao": "", "eq_distrit": "", "eq_subpref": "", "eq_esfera": "SEM ESFERA", "eq_classe": "FEIRAS_LIVRES", "eq_rede": "SEM REDE", "eq_tipo": "SEM TIPO" }, "geometry": { "type": "Point", "coordinates": [ -46.507492415718964, -23.622888517740289 ] } },
{ "type": "Feature", "properties": { "eq_nome": "JARDIM PLANALTO", "eq_enderec": "RUA RIO HIPIAUGUI150", "eq_bairro": "", "eq_cep": "", "eq_horario": "", "eq_telefon": "", "eq_regiao": "", "eq_distrit": "", "eq_subpref": "", "eq_esfera": "SEM ESFERA", "eq_classe": "FEIRAS_LIVRES", "eq_rede": "SEM REDE", "eq_tipo": "SEM TIPO" }, "geometry": { "type": "Point", "coordinates": [ -46.515443431833035, -23.609799440703082 ] } },
{ "type": "Feature", "properties": { "eq_nome": "RIO CLARO", "eq_enderec": "AVENIDA  LOURIVAL FONTES342", "eq_bairro": "", "eq_cep": "", "eq_horario": "", "eq_telefon": "", "eq_regiao": "", "eq_distrit": "", "eq_subpref": "", "eq_esfera": "SEM ESFERA", "eq_classe": "FEIRAS_LIVRES", "eq_rede": "SEM REDE", "eq_tipo": "SEM TIPO" }, "geometry": { "type": "Point", "coordinates": [ -46.507042380166993, -23.610527468916146 ] } },
{ "type": "Feature", "properties": { "eq_nome": "MARIA TEREZA", "eq_enderec": "RUA SERRA DE ITABAIANA87", "eq_bairro": "", "eq_cep": "", "eq_horario": "", "eq_telefon": "", "eq_regiao": "", "eq_distrit": "", "eq_subpref": "", "eq_esfera": "SEM ESFERA", "eq_classe": "FEIRAS_LIVRES", "eq_rede": "SEM REDE", "eq_tipo": "SEM TIPO" }, "geometry": { "type": "Point", "coordinates": [ -46.519583505421643, -23.612028435962561 ] } },
{ "type": "Feature", "properties": { "eq_nome": "IGUACU", "eq_enderec": "RUA JOSE DOMINGUES DE PONTES5", "eq_bairro": "", "eq_cep": "", "eq_horario": "", "eq_telefon": "", "eq_regiao": "", "eq_distrit": "", "eq_subpref": "", "eq_esfera": "SEM ESFERA", "eq_classe": "FEIRAS_LIVRES", "eq_rede": "SEM REDE", "eq_tipo": "SEM TIPO" }, "geometry": { "type": "Point", "coordinates": [ -46.519911364586839, -23.605250399487819 ] } },
{ "type": "Feature", "properties": { "eq_nome": "COHAB SAPOPEMBA I", "eq_enderec": "AVENIDA  ARQUITETO VILA NOVA ARTIGAS S/N", "eq_bairro": "", "eq_cep": "", "eq_horario": "", "eq_telefon": "", "eq_regiao": "", "eq_distrit": "", "eq_subpref": "", "eq_esfera": "SEM ESFERA", "eq_classe": "FEIRAS_LIVRES", "eq_rede": "SEM REDE", "eq_tipo": "SEM TIPO" }, "geometry": { "type": "Point", "coordinates": [ -46.499867346520631, -23.605065438803223 ] } },
{ "type": "Feature", "properties": { "eq_nome": "COHAB SAPOPEMBA", "eq_enderec": "RUA WALTER RUMMEL", "eq_bairro": "", "eq_cep": "", "eq_horario": "", "eq_telefon": "", "eq_regiao": "", "eq_distrit": "", "eq_subpref": "", "eq_esfera": "SEM ESFERA", "eq_classe": "FEIRAS_LIVRES", "eq_rede": "SEM REDE", "eq_tipo": "SEM TIPO" }, "geometry": { "type": "Point", "coordinates": [ -46.501553356686337, -23.605672433706864 ] } },
{ "type": "Feature", "properties": { "eq_nome": "SAPOPEMBA", "eq_enderec": "RUA ADUTORA DO RIO CLARO S/N", "eq_bairro": "", "eq_cep": "", "eq_horario": "", "eq_telefon": "", "eq_regiao": "", "eq_distrit": "", "eq_subpref": "", "eq_esfera": "SEM ESFERA", "eq_classe": "FEIRAS_LIVRES", "eq_rede": "SEM REDE", "eq_tipo": "SEM TIPO" }, "geometry": { "type": "Point", "coordinates": [ -46.506578440683811, -23.60695241951267 ] } },
{ "type": "Feature", "properties": { "eq_nome": "COHAB SAPOPEMBA I", "eq_enderec": "RUA FELICI TOSI S/N", "eq_bairro": "", "eq_cep": "", "eq_horario": "", "eq_telefon": "", "eq_regiao": "", "eq_distrit": "", "eq_subpref": "", "eq_esfera": "SEM ESFERA", "eq_classe": "FEIRAS_LIVRES", "eq_rede": "SEM REDE", "eq_tipo": "SEM TIPO" }, "geometry": { "type": "Point", "coordinates": [ -46.503677426904567, -23.606450451199024 ] } },
{ "type": "Feature", "properties": { "eq_nome": "TORQUATO PLAZ", "eq_enderec": "PRACA TORQUATO PLAZA S/N", "eq_bairro": "", "eq_cep": "", "eq_horario": "", "eq_telefon": "", "eq_regiao": "", "eq_distrit": "", "eq_subpref": "", "eq_esfera": "SEM ESFERA", "eq_classe": "FEIRAS_LIVRES", "eq_rede": "SEM REDE", "eq_tipo": "SEM TIPO" }, "geometry": { "type": "Point", "coordinates": [ -46.516022268906141, -23.598580325391591 ] } },
{ "type": "Feature", "properties": { "eq_nome": "TORQUATO PLAZA", "eq_enderec": "PRACA TORQUATO PLAZA S/N", "eq_bairro": "", "eq_cep": "", "eq_horario": "", "eq_telefon": "", "eq_regiao": "", "eq_distrit": "", "eq_subpref": "", "eq_esfera": "SEM ESFERA", "eq_classe": "FEIRAS_LIVRES", "eq_rede": "SEM REDE", "eq_tipo": "SEM TIPO" }, "geometry": { "type": "Point", "coordinates": [ -46.516022268906141, -23.598580325391591 ] } },
{ "type": "Feature", "properties": { "eq_nome": "SAPOPEMBA", "eq_enderec": "RUA GAL PORFIRIO DA PAZ371", "eq_bairro": "", "eq_cep": "", "eq_horario": "", "eq_telefon": "", "eq_regiao": "", "eq_distrit": "", "eq_subpref": "", "eq_esfera": "SEM ESFERA", "eq_classe": "FEIRAS_LIVRES", "eq_rede": "SEM REDE", "eq_tipo": "SEM TIPO" }, "geometry": { "type": "Point", "coordinates": [ -46.518913389420938, -23.587488420038071 ] } },
{ "type": "Feature", "properties": { "eq_nome": "JARDIM GRIMALDI", "eq_enderec": "RUA JOSE JOAQUIM253", "eq_bairro": "", "eq_cep": "", "eq_horario": "", "eq_telefon": "", "eq_regiao": "", "eq_distrit": "", "eq_subpref": "", "eq_esfera": "SEM ESFERA", "eq_classe": "FEIRAS_LIVRES", "eq_rede": "SEM REDE", "eq_tipo": "SEM TIPO" }, "geometry": { "type": "Point", "coordinates": [ -46.515602431367654, -23.600171370555099 ] } },
{ "type": "Feature", "properties": { "eq_nome": "TOLSTOI", "eq_enderec": "RUA DR TOLSTOI DE CARVALHO S/N", "eq_bairro": "", "eq_cep": "", "eq_horario": "", "eq_telefon": "", "eq_regiao": "", "eq_distrit": "", "eq_subpref": "", "eq_esfera": "SEM ESFERA", "eq_classe": "FEIRAS_LIVRES", "eq_rede": "SEM REDE", "eq_tipo": "SEM TIPO" }, "geometry": { "type": "Point", "coordinates": [ -46.524049430693708, -23.595859395795102 ] } },
{ "type": "Feature", "properties": { "eq_nome": "COLORADO", "eq_enderec": "RUA PEDRO VITORATO474", "eq_bairro": "", "eq_cep": "", "eq_horario": "", "eq_telefon": "", "eq_regiao": "", "eq_distrit": "", "eq_subpref": "", "eq_esfera": "SEM ESFERA", "eq_classe": "FEIRAS_LIVRES", "eq_rede": "SEM REDE", "eq_tipo": "SEM TIPO" }, "geometry": { "type": "Point", "coordinates": [ -46.528001397357784, -23.58560842930687 ] } },
{ "type": "Feature", "properties": { "eq_nome": "CAMPO BELO", "eq_enderec": "RUA BARAO DE JACEGUAI1768", "eq_bairro": "", "eq_cep": "", "eq_horario": "", "eq_telefon": "", "eq_regiao": "", "eq_distrit": "", "eq_subpref": "", "eq_esfera": "SEM ESFERA", "eq_classe": "FEIRAS_LIVRES", "eq_rede": "SEM REDE", "eq_tipo": "SEM TIPO" }, "geometry": { "type": "Point", "coordinates": [ -46.669966068061235, -23.615140454822956 ] } },
{ "type": "Feature", "properties": { "eq_nome": "PIRAQUARA", "eq_enderec": "RUA CRISTOVAO PEREIRA1223", "eq_bairro": "", "eq_cep": "", "eq_horario": "", "eq_telefon": "", "eq_regiao": "", "eq_distrit": "", "eq_subpref": "", "eq_esfera": "SEM ESFERA", "eq_classe": "FEIRAS_LIVRES", "eq_rede": "SEM REDE", "eq_tipo": "SEM TIPO" }, "geometry": { "type": "Point", "coordinates": [ -46.671136148221606, -23.627581547604301 ] } },
{ "type": "Feature", "properties": { "eq_nome": "JARDIM AEROPORTO", "eq_enderec": "RUA TAPES683", "eq_bairro": "", "eq_cep": "", "eq_horario": "", "eq_telefon": "", "eq_regiao": "", "eq_distrit": "", "eq_subpref": "", "eq_esfera": "SEM ESFERA", "eq_classe": "FEIRAS_LIVRES", "eq_rede": "SEM REDE", "eq_tipo": "SEM TIPO" }, "geometry": { "type": "Point", "coordinates": [ -46.661924027199682, -23.632447614137959 ] } },
{ "type": "Feature", "properties": { "eq_nome": "CONGONHAS", "eq_enderec": "AVENIDA  INVERNADA351", "eq_bairro": "", "eq_cep": "", "eq_horario": "", "eq_telefon": "", "eq_regiao": "", "eq_distrit": "", "eq_subpref": "", "eq_esfera": "SEM ESFERA", "eq_classe": "FEIRAS_LIVRES", "eq_rede": "SEM REDE", "eq_tipo": "SEM TIPO" }, "geometry": { "type": "Point", "coordinates": [ -46.664382125333503, -23.623610566743761 ] } },
{ "type": "Feature", "properties": { "eq_nome": "CONJUNTO ASTOR", "eq_enderec": "RUA HELADE S/N", "eq_bairro": "", "eq_cep": "", "eq_horario": "", "eq_telefon": "", "eq_regiao": "", "eq_distrit": "", "eq_subpref": "", "eq_esfera": "SEM ESFERA", "eq_classe": "FEIRAS_LIVRES", "eq_rede": "SEM REDE", "eq_tipo": "SEM TIPO" }, "geometry": { "type": "Point", "coordinates": [ -46.668614147657465, -23.641056502580735 ] } },
{ "type": "Feature", "properties": { "eq_nome": "PARQUE JABAQUARA", "eq_enderec": "RUA BONIFACIO DE ABREU S/N", "eq_bairro": "", "eq_cep": "", "eq_horario": "", "eq_telefon": "", "eq_regiao": "", "eq_distrit": "", "eq_subpref": "", "eq_esfera": "SEM ESFERA", "eq_classe": "FEIRAS_LIVRES", "eq_rede": "SEM REDE", "eq_tipo": "SEM TIPO" }, "geometry": { "type": "Point", "coordinates": [ -46.655089039599417, -23.637776608770732 ] } },
{ "type": "Feature", "properties": { "eq_nome": "PETROPOLIS", "eq_enderec": "RUA BELA VISTA602", "eq_bairro": "", "eq_cep": "", "eq_horario": "", "eq_telefon": "", "eq_regiao": "", "eq_distrit": "", "eq_subpref": "", "eq_esfera": "SEM ESFERA", "eq_classe": "FEIRAS_LIVRES", "eq_rede": "SEM REDE", "eq_tipo": "SEM TIPO" }, "geometry": { "type": "Point", "coordinates": [ -46.662359103306926, -23.622859549384369 ] } },
{ "type": "Feature", "properties": { "eq_nome": "PIRAQUARA", "eq_enderec": "RUA OTAVIO TARQUINIO DE SOUZA1319", "eq_bairro": "", "eq_cep": "", "eq_horario": "", "eq_telefon": "", "eq_regiao": "", "eq_distrit": "", "eq_subpref": "", "eq_esfera": "SEM ESFERA", "eq_classe": "FEIRAS_LIVRES", "eq_rede": "SEM REDE", "eq_tipo": "SEM TIPO" }, "geometry": { "type": "Point", "coordinates": [ -46.67348318118313, -23.61314944348608 ] } },
{ "type": "Feature", "properties": { "eq_nome": "FEIRAO ECON C DE PORTO ALEGRE", "eq_enderec": "RUA CONDE DE PORTO ALEGRE S/N", "eq_bairro": "", "eq_cep": "", "eq_horario": "", "eq_telefon": "", "eq_regiao": "", "eq_distrit": "", "eq_subpref": "", "eq_esfera": "SEM ESFERA", "eq_classe": "FEIRAS_LIVRES", "eq_rede": "SEM REDE", "eq_tipo": "SEM TIPO" }, "geometry": { "type": "Point", "coordinates": [ -46.673784101819038, -23.622387513067391 ] } },
{ "type": "Feature", "properties": { "eq_nome": "GIL EANES", "eq_enderec": "RUA GIL EANES S/N", "eq_bairro": "", "eq_cep": "", "eq_horario": "", "eq_telefon": "", "eq_regiao": "", "eq_distrit": "", "eq_subpref": "", "eq_esfera": "SEM ESFERA", "eq_classe": "FEIRAS_LIVRES", "eq_rede": "SEM REDE", "eq_tipo": "SEM TIPO" }, "geometry": { "type": "Point", "coordinates": [ -46.67985711486017, -23.617302504097243 ] } },
{ "type": "Feature", "properties": { "eq_nome": "BROOKLIN PAULISTA", "eq_enderec": "RUA CONDE DE PORTO ALEGRE762", "eq_bairro": "", "eq_cep": "", "eq_horario": "", "eq_telefon": "", "eq_regiao": "", "eq_distrit": "", "eq_subpref": "", "eq_esfera": "SEM ESFERA", "eq_classe": "FEIRAS_LIVRES", "eq_rede": "SEM REDE", "eq_tipo": "SEM TIPO" }, "geometry": { "type": "Point", "coordinates": [ -46.677605195836897, -23.623362486645242 ] } },
{ "type": "Feature", "properties": { "eq_nome": "NHANDIROBAS", "eq_enderec": "RUA GRUMIXAMAS374", "eq_bairro": "", "eq_cep": "", "eq_horario": "", "eq_telefon": "", "eq_regiao": "", "eq_distrit": "", "eq_subpref": "", "eq_esfera": "SEM ESFERA", "eq_classe": "FEIRAS_LIVRES", "eq_rede": "SEM REDE", "eq_tipo": "SEM TIPO" }, "geometry": { "type": "Point", "coordinates": [ -46.643359990605425, -23.648161523141724 ] } },
{ "type": "Feature", "properties": { "eq_nome": "VILA FACCHINI", "eq_enderec": "RUA LUIZ CARLOS FACCHINI50", "eq_bairro": "", "eq_cep": "", "eq_horario": "", "eq_telefon": "", "eq_regiao": "", "eq_distrit": "", "eq_subpref": "", "eq_esfera": "SEM ESFERA", "eq_classe": "FEIRAS_LIVRES", "eq_rede": "SEM REDE", "eq_tipo": "SEM TIPO" }, "geometry": { "type": "Point", "coordinates": [ -46.636321908881463, -23.656604605912548 ] } },
{ "type": "Feature", "properties": { "eq_nome": "JABAQUARA", "eq_enderec": "AVENIDA  ENGENHEIRO ARMANDO DE ARRUDA PEREIRA S/N", "eq_bairro": "", "eq_cep": "", "eq_horario": "", "eq_telefon": "", "eq_regiao": "", "eq_distrit": "", "eq_subpref": "", "eq_esfera": "SEM ESFERA", "eq_classe": "FEIRAS_LIVRES", "eq_rede": "SEM REDE", "eq_tipo": "SEM TIPO" }, "geometry": { "type": "Point", "coordinates": [ -46.636947024674662, -23.663318257014449 ] } },
{ "type": "Feature", "properties": { "eq_nome": "CIDADE VARGAS", "eq_enderec": "PRACA NOVA AMERICA  15-A", "eq_bairro": "", "eq_cep": "", "eq_horario": "", "eq_telefon": "", "eq_regiao": "", "eq_distrit": "", "eq_subpref": "", "eq_esfera": "SEM ESFERA", "eq_classe": "FEIRAS_LIVRES", "eq_rede": "SEM REDE", "eq_tipo": "SEM TIPO" }, "geometry": { "type": "Point", "coordinates": [ -46.63550287694553, -23.640443618141497 ] } },
{ "type": "Feature", "properties": { "eq_nome": "VILA GUARANI", "eq_enderec": "AVENIDA  DIEDERICHSEN45", "eq_bairro": "", "eq_cep": "", "eq_horario": "", "eq_telefon": "", "eq_regiao": "", "eq_distrit": "", "eq_subpref": "", "eq_esfera": "SEM ESFERA", "eq_classe": "FEIRAS_LIVRES", "eq_rede": "SEM REDE", "eq_tipo": "SEM TIPO" }, "geometry": { "type": "Point", "coordinates": [ -46.640870951710561, -23.632763531598549 ] } },
{ "type": "Feature", "properties": { "eq_nome": "SANTA CATARINA", "eq_enderec": "RUA ALBA C JOAQUIM MORAIS302", "eq_bairro": "", "eq_cep": "", "eq_horario": "", "eq_telefon": "", "eq_regiao": "", "eq_distrit": "", "eq_subpref": "", "eq_esfera": "SEM ESFERA", "eq_classe": "FEIRAS_LIVRES", "eq_rede": "SEM REDE", "eq_tipo": "SEM TIPO" }, "geometry": { "type": "Point", "coordinates": [ -46.652883044017344, -23.640397478920725 ] } },
{ "type": "Feature", "properties": { "eq_nome": "VILA GUARANI", "eq_enderec": "AVENIDA  WALDOMIRO DE LIMA S/N", "eq_bairro": "", "eq_cep": "", "eq_horario": "", "eq_telefon": "", "eq_regiao": "", "eq_distrit": "", "eq_subpref": "", "eq_esfera": "SEM ESFERA", "eq_classe": "FEIRAS_LIVRES", "eq_rede": "SEM REDE", "eq_tipo": "SEM TIPO" }, "geometry": { "type": "Point", "coordinates": [ -46.649213979913561, -23.638277618952774 ] } },
{ "type": "Feature", "properties": { "eq_nome": "TEJUPA", "eq_enderec": "RUA TEJUPA", "eq_bairro": "", "eq_cep": "", "eq_horario": "", "eq_telefon": "", "eq_regiao": "", "eq_distrit": "", "eq_subpref": "", "eq_esfera": "SEM ESFERA", "eq_classe": "FEIRAS_LIVRES", "eq_rede": "SEM REDE", "eq_tipo": "SEM TIPO" }, "geometry": { "type": "Point", "coordinates": [ -46.65349100514176, -23.642694494916817 ] } },
{ "type": "Feature", "properties": { "eq_nome": "APACE", "eq_enderec": "RUA APACE372", "eq_bairro": "", "eq_cep": "", "eq_horario": "", "eq_telefon": "", "eq_regiao": "", "eq_distrit": "", "eq_subpref": "", "eq_esfera": "SEM ESFERA", "eq_classe": "FEIRAS_LIVRES", "eq_rede": "SEM REDE", "eq_tipo": "SEM TIPO" }, "geometry": { "type": "Point", "coordinates": [ -46.646056003886947, -23.644598514923775 ] } },
{ "type": "Feature", "properties": { "eq_nome": "SANTA CATARINA", "eq_enderec": "RUA FRANKLIN MAGALHAES273", "eq_bairro": "", "eq_cep": "", "eq_horario": "", "eq_telefon": "", "eq_regiao": "", "eq_distrit": "", "eq_subpref": "", "eq_esfera": "SEM ESFERA", "eq_classe": "FEIRAS_LIVRES", "eq_rede": "SEM REDE", "eq_tipo": "SEM TIPO" }, "geometry": { "type": "Point", "coordinates": [ -46.656104007212974, -23.651583582998484 ] } },
{ "type": "Feature", "properties": { "eq_nome": "VILA CAMPESTRE", "eq_enderec": "RUA ROSALIA DE CASTRO559", "eq_bairro": "", "eq_cep": "", "eq_horario": "", "eq_telefon": "", "eq_regiao": "", "eq_distrit": "", "eq_subpref": "", "eq_esfera": "SEM ESFERA", "eq_classe": "FEIRAS_LIVRES", "eq_rede": "SEM REDE", "eq_tipo": "SEM TIPO" }, "geometry": { "type": "Point", "coordinates": [ -46.644854997372768, -23.657686565908161 ] } },
{ "type": "Feature", "properties": { "eq_nome": "SAO JOSE", "eq_enderec": "RUA HUGO VITOR DA SILVA S/N", "eq_bairro": "", "eq_cep": "", "eq_horario": "", "eq_telefon": "", "eq_regiao": "", "eq_distrit": "", "eq_subpref": "", "eq_esfera": "SEM ESFERA", "eq_classe": "FEIRAS_LIVRES", "eq_rede": "SEM REDE", "eq_tipo": "SEM TIPO" }, "geometry": { "type": "Point", "coordinates": [ -46.642282000009757, -23.668120652297141 ] } },
{ "type": "Feature", "properties": { "eq_nome": "AMERICANOPOLIS", "eq_enderec": "RUA DEODORO DE CAMPOS12", "eq_bairro": "", "eq_cep": "", "eq_horario": "", "eq_telefon": "", "eq_regiao": "", "eq_distrit": "", "eq_subpref": "", "eq_esfera": "SEM ESFERA", "eq_classe": "FEIRAS_LIVRES", "eq_rede": "SEM REDE", "eq_tipo": "SEM TIPO" }, "geometry": { "type": "Point", "coordinates": [ -46.642390963356405, -23.660583566906105 ] } },
{ "type": "Feature", "properties": { "eq_nome": "CACHOEIRA", "eq_enderec": "RUA CAP MOR PASSOS225", "eq_bairro": "", "eq_cep": "", "eq_horario": "", "eq_telefon": "", "eq_regiao": "", "eq_distrit": "", "eq_subpref": "", "eq_esfera": "SEM ESFERA", "eq_classe": "FEIRAS_LIVRES", "eq_rede": "SEM REDE", "eq_tipo": "SEM TIPO" }, "geometry": { "type": "Point", "coordinates": [ -46.614968865311205, -23.526850191500973 ] } },
{ "type": "Feature", "properties": { "eq_nome": "CANINDE", "eq_enderec": "RUA VIDAL DE NEGREIROS", "eq_bairro": "", "eq_cep": "", "eq_horario": "", "eq_telefon": "", "eq_regiao": "", "eq_distrit": "", "eq_subpref": "", "eq_esfera": "SEM ESFERA", "eq_classe": "FEIRAS_LIVRES", "eq_rede": "SEM REDE", "eq_tipo": "SEM TIPO" }, "geometry": { "type": "Point", "coordinates": [ -46.624455860202353, -23.529389126829525 ] } },
{ "type": "Feature", "properties": { "eq_nome": "PARI", "eq_enderec": "RUA MENDES GONCALVES82", "eq_bairro": "", "eq_cep": "", "eq_horario": "", "eq_telefon": "", "eq_regiao": "", "eq_distrit": "", "eq_subpref": "", "eq_esfera": "SEM ESFERA", "eq_classe": "FEIRAS_LIVRES", "eq_rede": "SEM REDE", "eq_tipo": "SEM TIPO" }, "geometry": { "type": "Point", "coordinates": [ -46.613898829177252, -23.532487218855877 ] } },
{ "type": "Feature", "properties": { "eq_nome": "JARDIM HELIAN", "eq_enderec": "RUA MANOEL BACELAR S/N", "eq_bairro": "", "eq_cep": "", "eq_horario": "", "eq_telefon": "", "eq_regiao": "", "eq_distrit": "", "eq_subpref": "", "eq_esfera": "SEM ESFERA", "eq_classe": "FEIRAS_LIVRES", "eq_rede": "SEM REDE", "eq_tipo": "SEM TIPO" }, "geometry": { "type": "Point", "coordinates": [ -46.453249104028181, -23.575365379751922 ] } },
{ "type": "Feature", "properties": { "eq_nome": "VILA CARMOSINA", "eq_enderec": "RUA LAGOA FEIA S/N", "eq_bairro": "", "eq_cep": "", "eq_horario": "", "eq_telefon": "", "eq_regiao": "", "eq_distrit": "", "eq_subpref": "", "eq_esfera": "SEM ESFERA", "eq_classe": "FEIRAS_LIVRES", "eq_rede": "SEM REDE", "eq_tipo": "SEM TIPO" }, "geometry": { "type": "Point", "coordinates": [ -46.455097188146397, -23.554791271099177 ] } },
{ "type": "Feature", "properties": { "eq_nome": "SAVOY CITY", "eq_enderec": "RUA XAVIER PALMERIM35", "eq_bairro": "", "eq_cep": "", "eq_horario": "", "eq_telefon": "", "eq_regiao": "", "eq_distrit": "", "eq_subpref": "", "eq_esfera": "SEM ESFERA", "eq_classe": "FEIRAS_LIVRES", "eq_rede": "SEM REDE", "eq_tipo": "SEM TIPO" }, "geometry": { "type": "Point", "coordinates": [ -46.484499291374441, -23.575853386648227 ] } },
{ "type": "Feature", "properties": { "eq_nome": "JARDIM NOSSA SENHORA DO CARMO", "eq_enderec": "RUA ESTEVAO DIAS VERGARA700", "eq_bairro": "", "eq_cep": "", "eq_horario": "", "eq_telefon": "", "eq_regiao": "", "eq_distrit": "", "eq_subpref": "", "eq_esfera": "SEM ESFERA", "eq_classe": "FEIRAS_LIVRES", "eq_rede": "SEM REDE", "eq_tipo": "SEM TIPO" }, "geometry": { "type": "Point", "coordinates": [ -46.477450273664871, -23.570234371583854 ] } },
{ "type": "Feature", "properties": { "eq_nome": "SANTA MARCELINA", "eq_enderec": "RUA PRAIA DE TORRES S/N", "eq_bairro": "", "eq_cep": "", "eq_horario": "", "eq_telefon": "", "eq_regiao": "", "eq_distrit": "", "eq_subpref": "", "eq_esfera": "SEM ESFERA", "eq_classe": "FEIRAS_LIVRES", "eq_rede": "SEM REDE", "eq_tipo": "SEM TIPO" }, "geometry": { "type": "Point", "coordinates": [ -46.463980215116038, -23.560825252692297 ] } },
{ "type": "Feature", "properties": { "eq_nome": "PIAVUNAS", "eq_enderec": "RUA PIAVUNAS", "eq_bairro": "", "eq_cep": "", "eq_horario": "", "eq_telefon": "", "eq_regiao": "", "eq_distrit": "", "eq_subpref": "", "eq_esfera": "SEM ESFERA", "eq_classe": "FEIRAS_LIVRES", "eq_rede": "SEM REDE", "eq_tipo": "SEM TIPO" }, "geometry": { "type": "Point", "coordinates": [ -46.650705457487724, -23.700137291757944 ] } },
{ "type": "Feature", "properties": { "eq_nome": "JARDIM UBIRAJARA", "eq_enderec": "AVENIDA  BATISTA MACIEL313", "eq_bairro": "", "eq_cep": "", "eq_horario": "", "eq_telefon": "", "eq_regiao": "", "eq_distrit": "", "eq_subpref": "", "eq_esfera": "SEM ESFERA", "eq_classe": "FEIRAS_LIVRES", "eq_rede": "SEM REDE", "eq_tipo": "SEM TIPO" }, "geometry": { "type": "Point", "coordinates": [ -46.669160089394929, -23.69333080646652 ] } },
{ "type": "Feature", "properties": { "eq_nome": "PEDREIRA", "eq_enderec": "AVENIDA  AUGUSTO DE CASTRO283", "eq_bairro": "", "eq_cep": "", "eq_horario": "", "eq_telefon": "", "eq_regiao": "", "eq_distrit": "", "eq_subpref": "", "eq_esfera": "SEM ESFERA", "eq_classe": "FEIRAS_LIVRES", "eq_rede": "SEM REDE", "eq_tipo": "SEM TIPO" }, "geometry": { "type": "Point", "coordinates": [ -46.660575012662726, -23.68983775881313 ] } },
{ "type": "Feature", "properties": { "eq_nome": "REFUGIO SANTA TEREZINHA", "eq_enderec": "RUA DOS ANIQUIS E DOS CARATAIS121", "eq_bairro": "", "eq_cep": "", "eq_horario": "", "eq_telefon": "", "eq_regiao": "", "eq_distrit": "", "eq_subpref": "", "eq_esfera": "SEM ESFERA", "eq_classe": "FEIRAS_LIVRES", "eq_rede": "SEM REDE", "eq_tipo": "SEM TIPO" }, "geometry": { "type": "Point", "coordinates": [ -46.646157989968934, -23.698437774178458 ] } },
{ "type": "Feature", "properties": { "eq_nome": "MAR PAULISTA", "eq_enderec": "RUA AUGUSTO DE CASTRO74", "eq_bairro": "", "eq_cep": "", "eq_horario": "", "eq_telefon": "", "eq_regiao": "", "eq_distrit": "", "eq_subpref": "", "eq_esfera": "SEM ESFERA", "eq_classe": "FEIRAS_LIVRES", "eq_rede": "SEM REDE", "eq_tipo": "SEM TIPO" }, "geometry": { "type": "Point", "coordinates": [ -46.660007056239003, -23.691883742046731 ] } },
{ "type": "Feature", "properties": { "eq_nome": "ROSARIO", "eq_enderec": "PRACA DO ROSARIO S/N", "eq_bairro": "", "eq_cep": "", "eq_horario": "", "eq_telefon": "", "eq_regiao": "", "eq_distrit": "", "eq_subpref": "", "eq_esfera": "SEM ESFERA", "eq_classe": "FEIRAS_LIVRES", "eq_rede": "SEM REDE", "eq_tipo": "SEM TIPO" }, "geometry": { "type": "Point", "coordinates": [ -46.548566684007582, -23.524839412923843 ] } },
{ "type": "Feature", "properties": { "eq_nome": "GUAIAUNA", "eq_enderec": "RUA GUAIAUNA200", "eq_bairro": "", "eq_cep": "", "eq_horario": "", "eq_telefon": "", "eq_regiao": "", "eq_distrit": "", "eq_subpref": "", "eq_esfera": "SEM ESFERA", "eq_classe": "FEIRAS_LIVRES", "eq_rede": "SEM REDE", "eq_tipo": "SEM TIPO" }, "geometry": { "type": "Point", "coordinates": [ -46.550738998852083, -23.529558923857984 ] } },
{ "type": "Feature", "properties": { "eq_nome": "ENGENHEIRO TRINDADE", "eq_enderec": "RUA ENG TRINDADE5", "eq_bairro": "", "eq_cep": "", "eq_horario": "", "eq_telefon": "", "eq_regiao": "", "eq_distrit": "", "eq_subpref": "", "eq_esfera": "SEM ESFERA", "eq_classe": "FEIRAS_LIVRES", "eq_rede": "SEM REDE", "eq_tipo": "SEM TIPO" }, "geometry": { "type": "Point", "coordinates": [ -46.55120858248219, -23.511431139348474 ] } },
{ "type": "Feature", "properties": { "eq_nome": "NOSSA SENHORA DE FATIMA", "eq_enderec": "PRACA MARIA HELENA BONELLI PALMA143", "eq_bairro": "", "eq_cep": "", "eq_horario": "", "eq_telefon": "", "eq_regiao": "", "eq_distrit": "", "eq_subpref": "", "eq_esfera": "SEM ESFERA", "eq_classe": "FEIRAS_LIVRES", "eq_rede": "SEM REDE", "eq_tipo": "SEM TIPO" }, "geometry": { "type": "Point", "coordinates": [ -46.544704557594606, -23.527500185649526 ] } },
{ "type": "Feature", "properties": { "eq_nome": "PRACA DO CERQUILHO", "eq_enderec": "PRACA DANILO JOSE FERNANDES     ", "eq_bairro": "", "eq_cep": "", "eq_horario": "", "eq_telefon": "", "eq_regiao": "", "eq_distrit": "", "eq_subpref": "", "eq_esfera": "SEM ESFERA", "eq_classe": "FEIRAS_LIVRES", "eq_rede": "SEM REDE", "eq_tipo": "SEM TIPO" }, "geometry": { "type": "Point", "coordinates": [ -46.545630562297937, -23.521588146857255 ] } },
{ "type": "Feature", "properties": { "eq_nome": "VILA CAREZZI", "eq_enderec": "RUA GENERAL SOCRATES32", "eq_bairro": "", "eq_cep": "", "eq_horario": "", "eq_telefon": "", "eq_regiao": "", "eq_distrit": "", "eq_subpref": "", "eq_esfera": "SEM ESFERA", "eq_classe": "FEIRAS_LIVRES", "eq_rede": "SEM REDE", "eq_tipo": "SEM TIPO" }, "geometry": { "type": "Point", "coordinates": [ -46.548054594058001, -23.52948712811477 ] } },
{ "type": "Feature", "properties": { "eq_nome": "ATUAI", "eq_enderec": "RUA ATUAI1026", "eq_bairro": "", "eq_cep": "", "eq_horario": "", "eq_telefon": "", "eq_regiao": "", "eq_distrit": "", "eq_subpref": "", "eq_esfera": "SEM ESFERA", "eq_classe": "FEIRAS_LIVRES", "eq_rede": "SEM REDE", "eq_tipo": "SEM TIPO" }, "geometry": { "type": "Point", "coordinates": [ -46.52827188379738, -23.5308285672516 ] } },
{ "type": "Feature", "properties": { "eq_nome": "PENHA", "eq_enderec": "RUA OMACHA530", "eq_bairro": "", "eq_cep": "", "eq_horario": "", "eq_telefon": "", "eq_regiao": "", "eq_distrit": "", "eq_subpref": "", "eq_esfera": "SEM ESFERA", "eq_classe": "FEIRAS_LIVRES", "eq_rede": "SEM REDE", "eq_tipo": "SEM TIPO" }, "geometry": { "type": "Point", "coordinates": [ -46.539139558283715, -23.516889088887204 ] } },
{ "type": "Feature", "properties": { "eq_nome": "MIRANDINHA", "eq_enderec": "RUA MIRANDINHA399", "eq_bairro": "", "eq_cep": "", "eq_horario": "", "eq_telefon": "", "eq_regiao": "", "eq_distrit": "", "eq_subpref": "", "eq_esfera": "SEM ESFERA", "eq_classe": "FEIRAS_LIVRES", "eq_rede": "SEM REDE", "eq_tipo": "SEM TIPO" }, "geometry": { "type": "Point", "coordinates": [ -46.536343538125486, -23.522729085968791 ] } },
{ "type": "Feature", "properties": { "eq_nome": "PENHA", "eq_enderec": "RUA PEDRO ALEGRETTI512", "eq_bairro": "", "eq_cep": "", "eq_horario": "", "eq_telefon": "", "eq_regiao": "", "eq_distrit": "", "eq_subpref": "", "eq_esfera": "SEM ESFERA", "eq_classe": "FEIRAS_LIVRES", "eq_rede": "SEM REDE", "eq_tipo": "SEM TIPO" }, "geometry": { "type": "Point", "coordinates": [ -46.539253497435134, -23.52133111456088 ] } },
{ "type": "Feature", "properties": { "eq_nome": "MARIA CARLOTA", "eq_enderec": "RUA MARIA CARLOTA S/N", "eq_bairro": "", "eq_cep": "", "eq_horario": "", "eq_telefon": "", "eq_regiao": "", "eq_distrit": "", "eq_subpref": "", "eq_esfera": "SEM ESFERA", "eq_classe": "FEIRAS_LIVRES", "eq_rede": "SEM REDE", "eq_tipo": "SEM TIPO" }, "geometry": { "type": "Point", "coordinates": [ -46.527243466470061, -23.530877134750902 ] } },
{ "type": "Feature", "properties": { "eq_nome": "TIQUATIRA", "eq_enderec": "RUA PAULO MARQUES S/N", "eq_bairro": "", "eq_cep": "", "eq_horario": "", "eq_telefon": "", "eq_regiao": "", "eq_distrit": "", "eq_subpref": "", "eq_esfera": "SEM ESFERA", "eq_classe": "FEIRAS_LIVRES", "eq_rede": "SEM REDE", "eq_tipo": "SEM TIPO" }, "geometry": { "type": "Point", "coordinates": [ -46.526005403436152, -23.514240197389963 ] } },
{ "type": "Feature", "properties": { "eq_nome": "VILA SINANDUVA", "eq_enderec": "RUA SINANDUVA504", "eq_bairro": "", "eq_cep": "", "eq_horario": "", "eq_telefon": "", "eq_regiao": "", "eq_distrit": "", "eq_subpref": "", "eq_esfera": "SEM ESFERA", "eq_classe": "FEIRAS_LIVRES", "eq_rede": "SEM REDE", "eq_tipo": "SEM TIPO" }, "geometry": { "type": "Point", "coordinates": [ -46.521863383466162, -23.517794121155418 ] } },
{ "type": "Feature", "properties": { "eq_nome": "VILA SANTANA", "eq_enderec": "RUA ENEAS DE BARROS425", "eq_bairro": "", "eq_cep": "", "eq_horario": "", "eq_telefon": "", "eq_regiao": "", "eq_distrit": "", "eq_subpref": "", "eq_esfera": "SEM ESFERA", "eq_classe": "FEIRAS_LIVRES", "eq_rede": "SEM REDE", "eq_tipo": "SEM TIPO" }, "geometry": { "type": "Point", "coordinates": [ -46.533495521203918, -23.519158104942967 ] } },
{ "type": "Feature", "properties": { "eq_nome": "MARIA CARLOTA", "eq_enderec": "RUA NILZA S/N", "eq_bairro": "", "eq_cep": "", "eq_horario": "", "eq_telefon": "", "eq_regiao": "", "eq_distrit": "", "eq_subpref": "", "eq_esfera": "SEM ESFERA", "eq_classe": "FEIRAS_LIVRES", "eq_rede": "SEM REDE", "eq_tipo": "SEM TIPO" }, "geometry": { "type": "Point", "coordinates": [ -46.520355381318993, -23.524023128374207 ] } },
{ "type": "Feature", "properties": { "eq_nome": "JARDIM TRES MARIAS", "eq_enderec": "RUA MUNICIPAL1213", "eq_bairro": "", "eq_cep": "", "eq_horario": "", "eq_telefon": "", "eq_regiao": "", "eq_distrit": "", "eq_subpref": "", "eq_esfera": "SEM ESFERA", "eq_classe": "FEIRAS_LIVRES", "eq_rede": "SEM REDE", "eq_tipo": "SEM TIPO" }, "geometry": { "type": "Point", "coordinates": [ -46.497535355427246, -23.526489134657631 ] } },
{ "type": "Feature", "properties": { "eq_nome": "VILA NOVA GRANADA", "eq_enderec": "RUA FRANCISCO DE OLIVEIRA BRAGA13", "eq_bairro": "", "eq_cep": "", "eq_horario": "", "eq_telefon": "", "eq_regiao": "", "eq_distrit": "", "eq_subpref": "", "eq_esfera": "SEM ESFERA", "eq_classe": "FEIRAS_LIVRES", "eq_rede": "SEM REDE", "eq_tipo": "SEM TIPO" }, "geometry": { "type": "Point", "coordinates": [ -46.51350338402758, -23.520973149506631 ] } },
{ "type": "Feature", "properties": { "eq_nome": "VILA RE", "eq_enderec": "RUA MUNICIPAL19", "eq_bairro": "", "eq_cep": "", "eq_horario": "", "eq_telefon": "", "eq_regiao": "", "eq_distrit": "", "eq_subpref": "", "eq_esfera": "SEM ESFERA", "eq_classe": "FEIRAS_LIVRES", "eq_rede": "SEM REDE", "eq_tipo": "SEM TIPO" }, "geometry": { "type": "Point", "coordinates": [ -46.506978305351666, -23.521244073509912 ] } },
{ "type": "Feature", "properties": { "eq_nome": "ALTO DE VILA POMPEIA", "eq_enderec": "RUA TAVARES BASTOS901", "eq_bairro": "", "eq_cep": "", "eq_horario": "", "eq_telefon": "", "eq_regiao": "", "eq_distrit": "", "eq_subpref": "", "eq_esfera": "SEM ESFERA", "eq_classe": "FEIRAS_LIVRES", "eq_rede": "SEM REDE", "eq_tipo": "SEM TIPO" }, "geometry": { "type": "Point", "coordinates": [ -46.688382092429315, -23.532629182798516 ] } },
{ "type": "Feature", "properties": { "eq_nome": "ALTO DE VILA POMPEIA", "eq_enderec": "RUA BARAO DO BANANAL C/ COARI1865", "eq_bairro": "", "eq_cep": "", "eq_horario": "", "eq_telefon": "", "eq_regiao": "", "eq_distrit": "", "eq_subpref": "", "eq_esfera": "SEM ESFERA", "eq_classe": "FEIRAS_LIVRES", "eq_rede": "SEM REDE", "eq_tipo": "SEM TIPO" }, "geometry": { "type": "Point", "coordinates": [ -46.690934146296541, -23.536734199856117 ] } },
{ "type": "Feature", "properties": { "eq_nome": "SUMAREZINHO", "eq_enderec": "RUA CAYOWAA2008", "eq_bairro": "", "eq_cep": "", "eq_horario": "", "eq_telefon": "", "eq_regiao": "", "eq_distrit": "", "eq_subpref": "", "eq_esfera": "SEM ESFERA", "eq_classe": "FEIRAS_LIVRES", "eq_rede": "SEM REDE", "eq_tipo": "SEM TIPO" }, "geometry": { "type": "Point", "coordinates": [ -46.687679089113473, -23.54430122357352 ] } },
{ "type": "Feature", "properties": { "eq_nome": "VILA POMPEIA", "eq_enderec": "RUA MIN FERREIRA ALVES C/ TUCUNA340", "eq_bairro": "", "eq_cep": "", "eq_horario": "", "eq_telefon": "", "eq_regiao": "", "eq_distrit": "", "eq_subpref": "", "eq_esfera": "SEM ESFERA", "eq_classe": "FEIRAS_LIVRES", "eq_rede": "SEM REDE", "eq_tipo": "SEM TIPO" }, "geometry": { "type": "Point", "coordinates": [ -46.684166156643194, -23.529837146909458 ] } },
{ "type": "Feature", "properties": { "eq_nome": "ALTO DAS PERDIZES", "eq_enderec": "RUA MIN GODOY1261", "eq_bairro": "", "eq_cep": "", "eq_horario": "", "eq_telefon": "", "eq_regiao": "", "eq_distrit": "", "eq_subpref": "", "eq_esfera": "SEM ESFERA", "eq_classe": "FEIRAS_LIVRES", "eq_rede": "SEM REDE", "eq_tipo": "SEM TIPO" }, "geometry": { "type": "Point", "coordinates": [ -46.673111032935893, -23.539462218984468 ] } },
{ "type": "Feature", "properties": { "eq_nome": "JOAO RAMALHO", "eq_enderec": "RUA AIMBERE C/ CAIUBI401", "eq_bairro": "", "eq_cep": "", "eq_horario": "", "eq_telefon": "", "eq_regiao": "", "eq_distrit": "", "eq_subpref": "", "eq_esfera": "SEM ESFERA", "eq_classe": "FEIRAS_LIVRES", "eq_rede": "SEM REDE", "eq_tipo": "SEM TIPO" }, "geometry": { "type": "Point", "coordinates": [ -46.67197003167567, -23.539628180792732 ] } },
{ "type": "Feature", "properties": { "eq_nome": "JARDIM DO RUSSO", "eq_enderec": "RUA ENG NOGUEIRA SOARES45", "eq_bairro": "", "eq_cep": "", "eq_horario": "", "eq_telefon": "", "eq_regiao": "", "eq_distrit": "", "eq_subpref": "", "eq_esfera": "SEM ESFERA", "eq_classe": "FEIRAS_LIVRES", "eq_rede": "SEM REDE", "eq_tipo": "SEM TIPO" }, "geometry": { "type": "Point", "coordinates": [ -46.762604478492676, -23.407434665836913 ] } },
{ "type": "Feature", "properties": { "eq_nome": "PERUS", "eq_enderec": "RUA JOAO BATISTIA FANTON3", "eq_bairro": "", "eq_cep": "", "eq_horario": "", "eq_telefon": "", "eq_regiao": "", "eq_distrit": "", "eq_subpref": "", "eq_esfera": "SEM ESFERA", "eq_classe": "FEIRAS_LIVRES", "eq_rede": "SEM REDE", "eq_tipo": "SEM TIPO" }, "geometry": { "type": "Point", "coordinates": [ -46.749963441606369, -23.408148744743418 ] } },
{ "type": "Feature", "properties": { "eq_nome": "VILA OPERARIA", "eq_enderec": "RUA RAPHAEL DI SANDRO13", "eq_bairro": "", "eq_cep": "", "eq_horario": "", "eq_telefon": "", "eq_regiao": "", "eq_distrit": "", "eq_subpref": "", "eq_esfera": "SEM ESFERA", "eq_classe": "FEIRAS_LIVRES", "eq_rede": "SEM REDE", "eq_tipo": "SEM TIPO" }, "geometry": { "type": "Point", "coordinates": [ -46.756173377744858, -23.409578678669959 ] } },
{ "type": "Feature", "properties": { "eq_nome": "PERUS", "eq_enderec": "RUA ANTONIO BARTOLOMEU S/N", "eq_bairro": "", "eq_cep": "", "eq_horario": "", "eq_telefon": "", "eq_regiao": "", "eq_distrit": "", "eq_subpref": "", "eq_esfera": "SEM ESFERA", "eq_classe": "FEIRAS_LIVRES", "eq_rede": "SEM REDE", "eq_tipo": "SEM TIPO" }, "geometry": { "type": "Point", "coordinates": [ -46.75329338466463, -23.40541791901385 ] } },
{ "type": "Feature", "properties": { "eq_nome": "RECANTO DOS HUMILDES", "eq_enderec": "RUA RECANTO DOS HUMILDES S/N", "eq_bairro": "", "eq_cep": "", "eq_horario": "", "eq_telefon": "", "eq_regiao": "", "eq_distrit": "", "eq_subpref": "", "eq_esfera": "SEM ESFERA", "eq_classe": "FEIRAS_LIVRES", "eq_rede": "SEM REDE", "eq_tipo": "SEM TIPO" }, "geometry": { "type": "Point", "coordinates": [ -46.749537590574022, -23.41317604207196 ] } },
{ "type": "Feature", "properties": { "eq_nome": "VILA FANTON", "eq_enderec": "RUA FELIPE CARDOSO CAMPOS S/N", "eq_bairro": "", "eq_cep": "", "eq_horario": "", "eq_telefon": "", "eq_regiao": "", "eq_distrit": "", "eq_subpref": "", "eq_esfera": "SEM ESFERA", "eq_classe": "FEIRAS_LIVRES", "eq_rede": "SEM REDE", "eq_tipo": "SEM TIPO" }, "geometry": { "type": "Point", "coordinates": [ -46.755026469824891, -23.397026775947644 ] } },
{ "type": "Feature", "properties": { "eq_nome": "VILA CAIUBA", "eq_enderec": "RUA IRITUA S/N", "eq_bairro": "", "eq_cep": "", "eq_horario": "", "eq_telefon": "", "eq_regiao": "", "eq_distrit": "", "eq_subpref": "", "eq_esfera": "SEM ESFERA", "eq_classe": "FEIRAS_LIVRES", "eq_rede": "SEM REDE", "eq_tipo": "SEM TIPO" }, "geometry": { "type": "Point", "coordinates": [ -46.747035417911249, -23.400162797381135 ] } },
{ "type": "Feature", "properties": { "eq_nome": "TIBURNO", "eq_enderec": "RUA TIBURNO", "eq_bairro": "", "eq_cep": "", "eq_horario": "", "eq_telefon": "", "eq_regiao": "", "eq_distrit": "", "eq_subpref": "", "eq_esfera": "SEM ESFERA", "eq_classe": "FEIRAS_LIVRES", "eq_rede": "SEM REDE", "eq_tipo": "SEM TIPO" }, "geometry": { "type": "Point", "coordinates": [ -46.737839313758712, -23.40710177579777 ] } },
{ "type": "Feature", "properties": { "eq_nome": "PADRE CARVALHO", "eq_enderec": "RUA PDE CARVALHO S/N", "eq_bairro": "", "eq_cep": "", "eq_horario": "", "eq_telefon": "", "eq_regiao": "", "eq_distrit": "", "eq_subpref": "", "eq_esfera": "SEM ESFERA", "eq_classe": "FEIRAS_LIVRES", "eq_rede": "SEM REDE", "eq_tipo": "SEM TIPO" }, "geometry": { "type": "Point", "coordinates": [ -46.6960913387883, -23.563960434503635 ] } },
{ "type": "Feature", "properties": { "eq_nome": "LARGO DA BATATA", "eq_enderec": "RUA DR MANOEL CARLOS F DE ALMEIDA S/N", "eq_bairro": "", "eq_cep": "", "eq_horario": "", "eq_telefon": "", "eq_regiao": "", "eq_distrit": "", "eq_subpref": "", "eq_esfera": "SEM ESFERA", "eq_classe": "FEIRAS_LIVRES", "eq_rede": "SEM REDE", "eq_tipo": "SEM TIPO" }, "geometry": { "type": "Point", "coordinates": [ -46.692771123551211, -23.566236274014621 ] } },
{ "type": "Feature", "properties": { "eq_nome": "AMARO CAVALHEIRO", "eq_enderec": "RUA EUGENIO DE MEDEIROS S/N", "eq_bairro": "", "eq_cep": "", "eq_horario": "", "eq_telefon": "", "eq_regiao": "", "eq_distrit": "", "eq_subpref": "", "eq_esfera": "SEM ESFERA", "eq_classe": "FEIRAS_LIVRES", "eq_rede": "SEM REDE", "eq_tipo": "SEM TIPO" }, "geometry": { "type": "Point", "coordinates": [ -46.699874169853523, -23.566013274419209 ] } },
{ "type": "Feature", "properties": { "eq_nome": "JARDIM DAS BANDEIRAS", "eq_enderec": "RUA LUMINARIAS S/N", "eq_bairro": "", "eq_cep": "", "eq_horario": "", "eq_telefon": "", "eq_regiao": "", "eq_distrit": "", "eq_subpref": "", "eq_esfera": "SEM ESFERA", "eq_classe": "FEIRAS_LIVRES", "eq_rede": "SEM REDE", "eq_tipo": "SEM TIPO" }, "geometry": { "type": "Point", "coordinates": [ -46.687916160576108, -23.547802251934492 ] } },
{ "type": "Feature", "properties": { "eq_nome": "VILA MADALENA", "eq_enderec": "RUA MOURATO COELHO S/N", "eq_bairro": "", "eq_cep": "", "eq_horario": "", "eq_telefon": "", "eq_regiao": "", "eq_distrit": "", "eq_subpref": "", "eq_esfera": "SEM ESFERA", "eq_classe": "FEIRAS_LIVRES", "eq_rede": "SEM REDE", "eq_tipo": "SEM TIPO" }, "geometry": { "type": "Point", "coordinates": [ -46.691754120142917, -23.556633266865429 ] } },
{ "type": "Feature", "properties": { "eq_nome": "CERQUEIRA CEZAR", "eq_enderec": "RUA ANTONIO BICUDO50", "eq_bairro": "", "eq_cep": "", "eq_horario": "", "eq_telefon": "", "eq_regiao": "", "eq_distrit": "", "eq_subpref": "", "eq_esfera": "SEM ESFERA", "eq_classe": "FEIRAS_LIVRES", "eq_rede": "SEM REDE", "eq_tipo": "SEM TIPO" }, "geometry": { "type": "Point", "coordinates": [ -46.687263139027159, -23.566863257684947 ] } },
{ "type": "Feature", "properties": { "eq_nome": "SANTA MONICA", "eq_enderec": "RUA AMILCAR DE MAGALHAES S/N", "eq_bairro": "", "eq_cep": "", "eq_horario": "", "eq_telefon": "", "eq_regiao": "", "eq_distrit": "", "eq_subpref": "", "eq_esfera": "SEM ESFERA", "eq_classe": "FEIRAS_LIVRES", "eq_rede": "SEM REDE", "eq_tipo": "SEM TIPO" }, "geometry": { "type": "Point", "coordinates": [ -46.746079391141848, -23.478878908030069 ] } },
{ "type": "Feature", "properties": { "eq_nome": "JARDIM REGINA", "eq_enderec": "RUA PDE MARCIGAGLIA19", "eq_bairro": "", "eq_cep": "", "eq_horario": "", "eq_telefon": "", "eq_regiao": "", "eq_distrit": "", "eq_subpref": "", "eq_esfera": "SEM ESFERA", "eq_classe": "FEIRAS_LIVRES", "eq_rede": "SEM REDE", "eq_tipo": "SEM TIPO" }, "geometry": { "type": "Point", "coordinates": [ -46.74150136053224, -23.474733059699854 ] } },
{ "type": "Feature", "properties": { "eq_nome": "JARDIM SANTA MONICA", "eq_enderec": "AVENIDA  SANTA MONICA S/N", "eq_bairro": "", "eq_cep": "", "eq_horario": "", "eq_telefon": "", "eq_regiao": "", "eq_distrit": "", "eq_subpref": "", "eq_esfera": "SEM ESFERA", "eq_classe": "FEIRAS_LIVRES", "eq_rede": "SEM REDE", "eq_tipo": "SEM TIPO" }, "geometry": { "type": "Point", "coordinates": [ -46.748793356565635, -23.474253018641875 ] } },
{ "type": "Feature", "properties": { "eq_nome": "MUTINGA", "eq_enderec": "RUA MARIA LUCIA DUARTE35", "eq_bairro": "", "eq_cep": "", "eq_horario": "", "eq_telefon": "", "eq_regiao": "", "eq_distrit": "", "eq_subpref": "", "eq_esfera": "SEM ESFERA", "eq_classe": "FEIRAS_LIVRES", "eq_rede": "SEM REDE", "eq_tipo": "SEM TIPO" }, "geometry": { "type": "Point", "coordinates": [ -46.74125228349547, -23.482842010322003 ] } },
{ "type": "Feature", "properties": { "eq_nome": "JARDIM JOSE MARIA", "eq_enderec": "RUA SALTO DE ITARARE S/N", "eq_bairro": "", "eq_cep": "", "eq_horario": "", "eq_telefon": "", "eq_regiao": "", "eq_distrit": "", "eq_subpref": "", "eq_esfera": "SEM ESFERA", "eq_classe": "FEIRAS_LIVRES", "eq_rede": "SEM REDE", "eq_tipo": "SEM TIPO" }, "geometry": { "type": "Point", "coordinates": [ -46.715305312072374, -23.451317890740615 ] } },
{ "type": "Feature", "properties": { "eq_nome": "JARDIM CIDADE PIRITUBA", "eq_enderec": "RUA GONCALVES DE BARROS S/N", "eq_bairro": "", "eq_cep": "", "eq_horario": "", "eq_telefon": "", "eq_regiao": "", "eq_distrit": "", "eq_subpref": "", "eq_esfera": "SEM ESFERA", "eq_classe": "FEIRAS_LIVRES", "eq_rede": "SEM REDE", "eq_tipo": "SEM TIPO" }, "geometry": { "type": "Point", "coordinates": [ -46.724812325202663, -23.477913986967771 ] } },
{ "type": "Feature", "properties": { "eq_nome": "ANHEMBI", "eq_enderec": "RUA COLONIAL DO IRAI250", "eq_bairro": "", "eq_cep": "", "eq_horario": "", "eq_telefon": "", "eq_regiao": "", "eq_distrit": "", "eq_subpref": "", "eq_esfera": "SEM ESFERA", "eq_classe": "FEIRAS_LIVRES", "eq_rede": "SEM REDE", "eq_tipo": "SEM TIPO" }, "geometry": { "type": "Point", "coordinates": [ -46.716319272068176, -23.454259955249182 ] } },
{ "type": "Feature", "properties": { "eq_nome": "PIRITUBA", "eq_enderec": "RUA SANTA CRUZ DE LA SIERRA1", "eq_bairro": "", "eq_cep": "", "eq_horario": "", "eq_telefon": "", "eq_regiao": "", "eq_distrit": "", "eq_subpref": "", "eq_esfera": "SEM ESFERA", "eq_classe": "FEIRAS_LIVRES", "eq_rede": "SEM REDE", "eq_tipo": "SEM TIPO" }, "geometry": { "type": "Point", "coordinates": [ -46.719752286456483, -23.484814984784226 ] } },
{ "type": "Feature", "properties": { "eq_nome": "VILA MIRANTE", "eq_enderec": "RUA POVOADO DO RIO NOVO15", "eq_bairro": "", "eq_cep": "", "eq_horario": "", "eq_telefon": "", "eq_regiao": "", "eq_distrit": "", "eq_subpref": "", "eq_esfera": "SEM ESFERA", "eq_classe": "FEIRAS_LIVRES", "eq_rede": "SEM REDE", "eq_tipo": "SEM TIPO" }, "geometry": { "type": "Point", "coordinates": [ -46.721962361595054, -23.470960988657367 ] } },
{ "type": "Feature", "properties": { "eq_nome": "JARDIM N SRA APARECIDA", "eq_enderec": "RUA LARANJEIRAS DO SUL S/N", "eq_bairro": "", "eq_cep": "", "eq_horario": "", "eq_telefon": "", "eq_regiao": "", "eq_distrit": "", "eq_subpref": "", "eq_esfera": "SEM ESFERA", "eq_classe": "FEIRAS_LIVRES", "eq_rede": "SEM REDE", "eq_tipo": "SEM TIPO" }, "geometry": { "type": "Point", "coordinates": [ -46.717484261673334, -23.459323962644607 ] } },
{ "type": "Feature", "properties": { "eq_nome": "MIGUEL DE CASTRO", "eq_enderec": "AVENIDA MIGUEL DE CASTRO", "eq_bairro": "", "eq_cep": "", "eq_horario": "", "eq_telefon": "", "eq_regiao": "", "eq_distrit": "", "eq_subpref": "", "eq_esfera": "SEM ESFERA", "eq_classe": "FEIRAS_LIVRES", "eq_rede": "SEM REDE", "eq_tipo": "SEM TIPO" }, "geometry": { "type": "Point", "coordinates": [ -46.717338153016748, -23.480727492949129 ] } },
{ "type": "Feature", "properties": { "eq_nome": "VILA BONILHA", "eq_enderec": "RUA ANTONIO CORREIA618", "eq_bairro": "", "eq_cep": "", "eq_horario": "", "eq_telefon": "", "eq_regiao": "", "eq_distrit": "", "eq_subpref": "", "eq_esfera": "SEM ESFERA", "eq_classe": "FEIRAS_LIVRES", "eq_rede": "SEM REDE", "eq_tipo": "SEM TIPO" }, "geometry": { "type": "Point", "coordinates": [ -46.713024256330641, -23.497485009720027 ] } },
{ "type": "Feature", "properties": { "eq_nome": "JARDIM SAO JOSE", "eq_enderec": "RUA PDE MARIANO RONCHI 14-A", "eq_bairro": "", "eq_cep": "", "eq_horario": "", "eq_telefon": "", "eq_regiao": "", "eq_distrit": "", "eq_subpref": "", "eq_esfera": "SEM ESFERA", "eq_classe": "FEIRAS_LIVRES", "eq_rede": "SEM REDE", "eq_tipo": "SEM TIPO" }, "geometry": { "type": "Point", "coordinates": [ -46.709126285556799, -23.498218993384782 ] } },
{ "type": "Feature", "properties": { "eq_nome": "PIQUERI", "eq_enderec": "RUA SALVADOR SALA425", "eq_bairro": "", "eq_cep": "", "eq_horario": "", "eq_telefon": "", "eq_regiao": "", "eq_distrit": "", "eq_subpref": "", "eq_esfera": "SEM ESFERA", "eq_classe": "FEIRAS_LIVRES", "eq_rede": "SEM REDE", "eq_tipo": "SEM TIPO" }, "geometry": { "type": "Point", "coordinates": [ -46.710487305522314, -23.503000034139045 ] } },
{ "type": "Feature", "properties": { "eq_nome": "GRAND RESERVA PAULISTA", "eq_enderec": "PRACA GRAND RESERVA PAULISTA      ", "eq_bairro": "", "eq_cep": "", "eq_horario": "", "eq_telefon": "", "eq_regiao": "", "eq_distrit": "", "eq_subpref": "", "eq_esfera": "SEM ESFERA", "eq_classe": "FEIRAS_LIVRES", "eq_rede": "SEM REDE", "eq_tipo": "SEM TIPO" }, "geometry": { "type": "Point", "coordinates": [ -46.718316158142628, -23.501245003511215 ] } },
{ "type": "Feature", "properties": { "eq_nome": "GRAND RESERVA PAULISTA", "eq_enderec": "PRACA GRAND RESERVA PAULISTA      ", "eq_bairro": "", "eq_cep": "", "eq_horario": "", "eq_telefon": "", "eq_regiao": "", "eq_distrit": "", "eq_subpref": "", "eq_esfera": "SEM ESFERA", "eq_classe": "FEIRAS_LIVRES", "eq_rede": "SEM REDE", "eq_tipo": "SEM TIPO" }, "geometry": { "type": "Point", "coordinates": [ -46.718316158142628, -23.501245003511215 ] } },
{ "type": "Feature", "properties": { "eq_nome": "PRETA", "eq_enderec": "RUA PRETA", "eq_bairro": "", "eq_cep": "", "eq_horario": "", "eq_telefon": "", "eq_regiao": "", "eq_distrit": "", "eq_subpref": "", "eq_esfera": "SEM ESFERA", "eq_classe": "FEIRAS_LIVRES", "eq_rede": "SEM REDE", "eq_tipo": "SEM TIPO" }, "geometry": { "type": "Point", "coordinates": [ -46.714922417092481, -23.503056279948925 ] } },
{ "type": "Feature", "properties": { "eq_nome": "PRETA", "eq_enderec": "RUA PRETA", "eq_bairro": "", "eq_cep": "", "eq_horario": "", "eq_telefon": "", "eq_regiao": "", "eq_distrit": "", "eq_subpref": "", "eq_esfera": "SEM ESFERA", "eq_classe": "FEIRAS_LIVRES", "eq_rede": "SEM REDE", "eq_tipo": "SEM TIPO" }, "geometry": { "type": "Point", "coordinates": [ -46.714922417092481, -23.503056279948925 ] } },
{ "type": "Feature", "properties": { "eq_nome": "CHACARA INGLESA", "eq_enderec": "RUA PEDRO MARIGLIANI23", "eq_bairro": "", "eq_cep": "", "eq_horario": "", "eq_telefon": "", "eq_regiao": "", "eq_distrit": "", "eq_subpref": "", "eq_esfera": "SEM ESFERA", "eq_classe": "FEIRAS_LIVRES", "eq_rede": "SEM REDE", "eq_tipo": "SEM TIPO" }, "geometry": { "type": "Point", "coordinates": [ -46.72791439074966, -23.491099016344297 ] } },
{ "type": "Feature", "properties": { "eq_nome": "JARDIM DA FELICIDADE", "eq_enderec": "RUA LAUDELINO VIEIRA DE CAMPOS146", "eq_bairro": "", "eq_cep": "", "eq_horario": "", "eq_telefon": "", "eq_regiao": "", "eq_distrit": "", "eq_subpref": "", "eq_esfera": "SEM ESFERA", "eq_classe": "FEIRAS_LIVRES", "eq_rede": "SEM REDE", "eq_tipo": "SEM TIPO" }, "geometry": { "type": "Point", "coordinates": [ -46.724854341633325, -23.495318993556193 ] } },
{ "type": "Feature", "properties": { "eq_nome": "SERRA DO CACHIMBO", "eq_enderec": "RUA SERRA DO CACHIMBO S/N", "eq_bairro": "", "eq_cep": "", "eq_horario": "", "eq_telefon": "", "eq_regiao": "", "eq_distrit": "", "eq_subpref": "", "eq_esfera": "SEM ESFERA", "eq_classe": "FEIRAS_LIVRES", "eq_rede": "SEM REDE", "eq_tipo": "SEM TIPO" }, "geometry": { "type": "Point", "coordinates": [ -46.713105280492364, -23.472539958613147 ] } },
{ "type": "Feature", "properties": { "eq_nome": "FEIRAO ESPECIAL DE PIRITUBA", "eq_enderec": "PRACA MONSENHOR ESCRIVA        ", "eq_bairro": "", "eq_cep": "", "eq_horario": "", "eq_telefon": "", "eq_regiao": "", "eq_distrit": "", "eq_subpref": "", "eq_esfera": "SEM ESFERA", "eq_classe": "FEIRAS_LIVRES", "eq_rede": "SEM REDE", "eq_tipo": "SEM TIPO" }, "geometry": { "type": "Point", "coordinates": [ -46.710291262399316, -23.485178996856103 ] } },
{ "type": "Feature", "properties": { "eq_nome": "SANTOS DUMONT", "eq_enderec": "AVENIDA  CACHOEIRA SANTA CRUZ751", "eq_bairro": "", "eq_cep": "", "eq_horario": "", "eq_telefon": "", "eq_regiao": "", "eq_distrit": "", "eq_subpref": "", "eq_esfera": "SEM ESFERA", "eq_classe": "FEIRAS_LIVRES", "eq_rede": "SEM REDE", "eq_tipo": "SEM TIPO" }, "geometry": { "type": "Point", "coordinates": [ -46.508654352440061, -23.514531210563291 ] } },
{ "type": "Feature", "properties": { "eq_nome": "JARDIM POPULAR", "eq_enderec": "RUA ANDRE NATALE98", "eq_bairro": "", "eq_cep": "", "eq_horario": "", "eq_telefon": "", "eq_regiao": "", "eq_distrit": "", "eq_subpref": "", "eq_esfera": "SEM ESFERA", "eq_classe": "FEIRAS_LIVRES", "eq_rede": "SEM REDE", "eq_tipo": "SEM TIPO" }, "geometry": { "type": "Point", "coordinates": [ -46.508271332576712, -23.515888173004928 ] } },
{ "type": "Feature", "properties": { "eq_nome": "AZEVEDO", "eq_enderec": "RUA HERMENEGILDO GOIS PARENTE110", "eq_bairro": "", "eq_cep": "", "eq_horario": "", "eq_telefon": "", "eq_regiao": "", "eq_distrit": "", "eq_subpref": "", "eq_esfera": "SEM ESFERA", "eq_classe": "FEIRAS_LIVRES", "eq_rede": "SEM REDE", "eq_tipo": "SEM TIPO" }, "geometry": { "type": "Point", "coordinates": [ -46.493743336487128, -23.520095238542563 ] } },
{ "type": "Feature", "properties": { "eq_nome": "BURGO PAULISTA", "eq_enderec": "RUA ACAIPE S/N", "eq_bairro": "", "eq_cep": "", "eq_horario": "", "eq_telefon": "", "eq_regiao": "", "eq_distrit": "", "eq_subpref": "", "eq_esfera": "SEM ESFERA", "eq_classe": "FEIRAS_LIVRES", "eq_rede": "SEM REDE", "eq_tipo": "SEM TIPO" }, "geometry": { "type": "Point", "coordinates": [ -46.480899293712859, -23.517466190510181 ] } },
{ "type": "Feature", "properties": { "eq_nome": "BURGO PAULISTA", "eq_enderec": "RUA JOAO JOSE DE QUEIROZ595", "eq_bairro": "", "eq_cep": "", "eq_horario": "", "eq_telefon": "", "eq_regiao": "", "eq_distrit": "", "eq_subpref": "", "eq_esfera": "SEM ESFERA", "eq_classe": "FEIRAS_LIVRES", "eq_rede": "SEM REDE", "eq_tipo": "SEM TIPO" }, "geometry": { "type": "Point", "coordinates": [ -46.488360308593663, -23.520241172199945 ] } },
{ "type": "Feature", "properties": { "eq_nome": "VILA RIO BRANCO", "eq_enderec": "RUA FRANCISCO SOUZA QUEIROZ92", "eq_bairro": "", "eq_cep": "", "eq_horario": "", "eq_telefon": "", "eq_regiao": "", "eq_distrit": "", "eq_subpref": "", "eq_esfera": "SEM ESFERA", "eq_classe": "FEIRAS_LIVRES", "eq_rede": "SEM REDE", "eq_tipo": "SEM TIPO" }, "geometry": { "type": "Point", "coordinates": [ -46.499415344751, -23.513611188083807 ] } },
{ "type": "Feature", "properties": { "eq_nome": "VILA PRIMA", "eq_enderec": "RUA HONORIO EMILIANO BUENO155", "eq_bairro": "", "eq_cep": "", "eq_horario": "", "eq_telefon": "", "eq_regiao": "", "eq_distrit": "", "eq_subpref": "", "eq_esfera": "SEM ESFERA", "eq_classe": "FEIRAS_LIVRES", "eq_rede": "SEM REDE", "eq_tipo": "SEM TIPO" }, "geometry": { "type": "Point", "coordinates": [ -46.486438276086616, -23.50990919294291 ] } },
{ "type": "Feature", "properties": { "eq_nome": "AGENOR DE BARROS", "eq_enderec": "RUA AGENOR DE BARROS", "eq_bairro": "", "eq_cep": "", "eq_horario": "", "eq_telefon": "", "eq_regiao": "", "eq_distrit": "", "eq_subpref": "", "eq_esfera": "SEM ESFERA", "eq_classe": "FEIRAS_LIVRES", "eq_rede": "SEM REDE", "eq_tipo": "SEM TIPO" }, "geometry": { "type": "Point", "coordinates": [ -46.488894344215389, -23.5082666921476 ] } },
{ "type": "Feature", "properties": { "eq_nome": "SANTA EFIGENIA", "eq_enderec": "RUA DOS ANDRADAS C/ TIMBIRAS S/N", "eq_bairro": "", "eq_cep": "", "eq_horario": "", "eq_telefon": "", "eq_regiao": "", "eq_distrit": "", "eq_subpref": "", "eq_esfera": "SEM ESFERA", "eq_classe": "FEIRAS_LIVRES", "eq_rede": "SEM REDE", "eq_tipo": "SEM TIPO" }, "geometry": { "type": "Point", "coordinates": [ -46.637645953903018, -23.537866233856761 ] } },
{ "type": "Feature", "properties": { "eq_nome": "ANDRADAS", "eq_enderec": "RUA DOS ANDRADAS12", "eq_bairro": "", "eq_cep": "", "eq_horario": "", "eq_telefon": "", "eq_regiao": "", "eq_distrit": "", "eq_subpref": "", "eq_esfera": "SEM ESFERA", "eq_classe": "FEIRAS_LIVRES", "eq_rede": "SEM REDE", "eq_tipo": "SEM TIPO" }, "geometry": { "type": "Point", "coordinates": [ -46.638560909215762, -23.53772123534139 ] } },
{ "type": "Feature", "properties": { "eq_nome": "BENTO FREITAS", "eq_enderec": "RUA BENTO FREITAS420", "eq_bairro": "", "eq_cep": "", "eq_horario": "", "eq_telefon": "", "eq_regiao": "", "eq_distrit": "", "eq_subpref": "", "eq_esfera": "SEM ESFERA", "eq_classe": "FEIRAS_LIVRES", "eq_rede": "SEM REDE", "eq_tipo": "SEM TIPO" }, "geometry": { "type": "Point", "coordinates": [ -46.644677316597772, -23.544708884215417 ] } },
{ "type": "Feature", "properties": { "eq_nome": "FEIRA LIVRE IPIRANGA", "eq_enderec": "AVENIDA  IPIRANGA S/N", "eq_bairro": "", "eq_cep": "", "eq_horario": "", "eq_telefon": "", "eq_regiao": "", "eq_distrit": "", "eq_subpref": "", "eq_esfera": "SEM ESFERA", "eq_classe": "FEIRAS_LIVRES", "eq_rede": "SEM REDE", "eq_tipo": "SEM TIPO" }, "geometry": { "type": "Point", "coordinates": [ -46.640511892603044, -23.542414483835316 ] } },
{ "type": "Feature", "properties": { "eq_nome": "ANHANGABAU", "eq_enderec": "RUA SANTO AMARO S/N", "eq_bairro": "", "eq_cep": "", "eq_horario": "", "eq_telefon": "", "eq_regiao": "", "eq_distrit": "", "eq_subpref": "", "eq_esfera": "SEM ESFERA", "eq_classe": "FEIRAS_LIVRES", "eq_rede": "SEM REDE", "eq_tipo": "SEM TIPO" }, "geometry": { "type": "Point", "coordinates": [ -46.640291006601288, -23.552832248017257 ] } },
{ "type": "Feature", "properties": { "eq_nome": "AURIFLAMA", "eq_enderec": "RUA DR VIRGILIO ALVIN FRANCO10", "eq_bairro": "", "eq_cep": "", "eq_horario": "", "eq_telefon": "", "eq_regiao": "", "eq_distrit": "", "eq_subpref": "", "eq_esfera": "SEM ESFERA", "eq_classe": "FEIRAS_LIVRES", "eq_rede": "SEM REDE", "eq_tipo": "SEM TIPO" }, "geometry": { "type": "Point", "coordinates": [ -46.776397554772757, -23.575381319110672 ] } },
{ "type": "Feature", "properties": { "eq_nome": "JARDIM ANTONIA", "eq_enderec": "RUA DR PAULO RIBEIRO COELHO S/N", "eq_bairro": "", "eq_cep": "", "eq_horario": "", "eq_telefon": "", "eq_regiao": "", "eq_distrit": "", "eq_subpref": "", "eq_esfera": "SEM ESFERA", "eq_classe": "FEIRAS_LIVRES", "eq_rede": "SEM REDE", "eq_tipo": "SEM TIPO" }, "geometry": { "type": "Point", "coordinates": [ -46.758082380343744, -23.58096638813295 ] } },
{ "type": "Feature", "properties": { "eq_nome": "VILA DALVA", "eq_enderec": "RUA JORGE WORD49", "eq_bairro": "", "eq_cep": "", "eq_horario": "", "eq_telefon": "", "eq_regiao": "", "eq_distrit": "", "eq_subpref": "", "eq_esfera": "SEM ESFERA", "eq_classe": "FEIRAS_LIVRES", "eq_rede": "SEM REDE", "eq_tipo": "SEM TIPO" }, "geometry": { "type": "Point", "coordinates": [ -46.757252440475845, -23.567769312303472 ] } },
{ "type": "Feature", "properties": { "eq_nome": "VILA BUTANTA", "eq_enderec": "RUA JOSE ALVES DA CUNHA LIMA S/N", "eq_bairro": "", "eq_cep": "", "eq_horario": "", "eq_telefon": "", "eq_regiao": "", "eq_distrit": "", "eq_subpref": "", "eq_esfera": "SEM ESFERA", "eq_classe": "FEIRAS_LIVRES", "eq_rede": "SEM REDE", "eq_tipo": "SEM TIPO" }, "geometry": { "type": "Point", "coordinates": [ -46.747173326019023, -23.563088245158248 ] } },
{ "type": "Feature", "properties": { "eq_nome": "JARDIM ADALGIZA", "eq_enderec": "AVENIDA  GUSTAVO BERTHIER S/N", "eq_bairro": "", "eq_cep": "", "eq_horario": "", "eq_telefon": "", "eq_regiao": "", "eq_distrit": "", "eq_subpref": "", "eq_esfera": "SEM ESFERA", "eq_classe": "FEIRAS_LIVRES", "eq_rede": "SEM REDE", "eq_tipo": "SEM TIPO" }, "geometry": { "type": "Point", "coordinates": [ -46.764476418740621, -23.56268121515313 ] } },
{ "type": "Feature", "properties": { "eq_nome": "SAO DOMINGOS", "eq_enderec": "RUA JOSE JOAQUIM SEABRA S/N", "eq_bairro": "", "eq_cep": "", "eq_horario": "", "eq_telefon": "", "eq_regiao": "", "eq_distrit": "", "eq_subpref": "", "eq_esfera": "SEM ESFERA", "eq_classe": "FEIRAS_LIVRES", "eq_rede": "SEM REDE", "eq_tipo": "SEM TIPO" }, "geometry": { "type": "Point", "coordinates": [ -46.752935370356049, -23.570566315445703 ] } },
{ "type": "Feature", "properties": { "eq_nome": "JARDIM BONFIGLIOLI", "eq_enderec": "AVENIDA  OCTACILIO TOMANIK S/N", "eq_bairro": "", "eq_cep": "", "eq_horario": "", "eq_telefon": "", "eq_regiao": "", "eq_distrit": "", "eq_subpref": "", "eq_esfera": "SEM ESFERA", "eq_classe": "FEIRAS_LIVRES", "eq_rede": "SEM REDE", "eq_tipo": "SEM TIPO" }, "geometry": { "type": "Point", "coordinates": [ -46.743381388844035, -23.576201282028631 ] } },
{ "type": "Feature", "properties": { "eq_nome": "CARAMURU", "eq_enderec": "RUA PDE ALARICO ZACARIAS S/N", "eq_bairro": "", "eq_cep": "", "eq_horario": "", "eq_telefon": "", "eq_regiao": "", "eq_distrit": "", "eq_subpref": "", "eq_esfera": "SEM ESFERA", "eq_classe": "FEIRAS_LIVRES", "eq_rede": "SEM REDE", "eq_tipo": "SEM TIPO" }, "geometry": { "type": "Point", "coordinates": [ -46.755413345495661, -23.584862351132632 ] } },
{ "type": "Feature", "properties": { "eq_nome": "RIO PEQUENO", "eq_enderec": "AVENIDA  PUJAIS SABATE S/N", "eq_bairro": "", "eq_cep": "", "eq_horario": "", "eq_telefon": "", "eq_regiao": "", "eq_distrit": "", "eq_subpref": "", "eq_esfera": "SEM ESFERA", "eq_classe": "FEIRAS_LIVRES", "eq_rede": "SEM REDE", "eq_tipo": "SEM TIPO" }, "geometry": { "type": "Point", "coordinates": [ -46.751104356559253, -23.570716267453367 ] } },
{ "type": "Feature", "properties": { "eq_nome": "VILA CRISTALIA", "eq_enderec": "RUA ANTONIO LAMAS31", "eq_bairro": "", "eq_cep": "", "eq_horario": "", "eq_telefon": "", "eq_regiao": "", "eq_distrit": "", "eq_subpref": "", "eq_esfera": "SEM ESFERA", "eq_classe": "FEIRAS_LIVRES", "eq_rede": "SEM REDE", "eq_tipo": "SEM TIPO" }, "geometry": { "type": "Point", "coordinates": [ -46.585211775075862, -23.630491536992672 ] } },
{ "type": "Feature", "properties": { "eq_nome": "VILA INDEPENDENCIA", "eq_enderec": "LARGO  LEON DE TOLSTOI C/ ANY S/N", "eq_bairro": "", "eq_cep": "", "eq_horario": "", "eq_telefon": "", "eq_regiao": "", "eq_distrit": "", "eq_subpref": "", "eq_esfera": "SEM ESFERA", "eq_classe": "FEIRAS_LIVRES", "eq_rede": "SEM REDE", "eq_tipo": "SEM TIPO" }, "geometry": { "type": "Point", "coordinates": [ -46.585962731663408, -23.618191459236499 ] } },
{ "type": "Feature", "properties": { "eq_nome": "VILA ARAPUA", "eq_enderec": "RUA RIZZIERI NEGRINI199", "eq_bairro": "", "eq_cep": "", "eq_horario": "", "eq_telefon": "", "eq_regiao": "", "eq_distrit": "", "eq_subpref": "", "eq_esfera": "SEM ESFERA", "eq_classe": "FEIRAS_LIVRES", "eq_rede": "SEM REDE", "eq_tipo": "SEM TIPO" }, "geometry": { "type": "Point", "coordinates": [ -46.592109734779172, -23.634991589260256 ] } },
{ "type": "Feature", "properties": { "eq_nome": "JARDIM PATENTE", "eq_enderec": "AVENIDA  PATENTE468", "eq_bairro": "", "eq_cep": "", "eq_horario": "", "eq_telefon": "", "eq_regiao": "", "eq_distrit": "", "eq_subpref": "", "eq_esfera": "SEM ESFERA", "eq_classe": "FEIRAS_LIVRES", "eq_rede": "SEM REDE", "eq_tipo": "SEM TIPO" }, "geometry": { "type": "Point", "coordinates": [ -46.586458768768992, -23.625989525890891 ] } },
{ "type": "Feature", "properties": { "eq_nome": "FRANCISCO LEME", "eq_enderec": "RUA FRANCISCO LEME S/N", "eq_bairro": "", "eq_cep": "", "eq_horario": "", "eq_telefon": "", "eq_regiao": "", "eq_distrit": "", "eq_subpref": "", "eq_esfera": "SEM ESFERA", "eq_classe": "FEIRAS_LIVRES", "eq_rede": "SEM REDE", "eq_tipo": "SEM TIPO" }, "geometry": { "type": "Point", "coordinates": [ -46.593084734454735, -23.630457560572943 ] } },
{ "type": "Feature", "properties": { "eq_nome": "JARDIM LEAR", "eq_enderec": "RUA JOSE ANTONIO VALADARES13", "eq_bairro": "", "eq_cep": "", "eq_horario": "", "eq_telefon": "", "eq_regiao": "", "eq_distrit": "", "eq_subpref": "", "eq_esfera": "SEM ESFERA", "eq_classe": "FEIRAS_LIVRES", "eq_rede": "SEM REDE", "eq_tipo": "SEM TIPO" }, "geometry": { "type": "Point", "coordinates": [ -46.587157721625239, -23.64308061864909 ] } },
{ "type": "Feature", "properties": { "eq_nome": "VILA OLIVIERI", "eq_enderec": "RUA CLAUDIO FERREIRA MANOEL29", "eq_bairro": "", "eq_cep": "", "eq_horario": "", "eq_telefon": "", "eq_regiao": "", "eq_distrit": "", "eq_subpref": "", "eq_esfera": "SEM ESFERA", "eq_classe": "FEIRAS_LIVRES", "eq_rede": "SEM REDE", "eq_tipo": "SEM TIPO" }, "geometry": { "type": "Point", "coordinates": [ -46.595021776437193, -23.646034642876256 ] } },
{ "type": "Feature", "properties": { "eq_nome": "FEIRA LIVRE SANTA EMILIA", "eq_enderec": "RUA HENRI CROSS S/N", "eq_bairro": "", "eq_cep": "", "eq_horario": "", "eq_telefon": "", "eq_regiao": "", "eq_distrit": "", "eq_subpref": "", "eq_esfera": "SEM ESFERA", "eq_classe": "FEIRAS_LIVRES", "eq_rede": "SEM REDE", "eq_tipo": "SEM TIPO" }, "geometry": { "type": "Point", "coordinates": [ -46.598892545313241, -23.647699509624648 ] } },
{ "type": "Feature", "properties": { "eq_nome": "PARQUE BRISTOL", "eq_enderec": "RUA PROF ARNALDO JOAO SEMERARO S/N", "eq_bairro": "", "eq_cep": "", "eq_horario": "", "eq_telefon": "", "eq_regiao": "", "eq_distrit": "", "eq_subpref": "", "eq_esfera": "SEM ESFERA", "eq_classe": "FEIRAS_LIVRES", "eq_rede": "SEM REDE", "eq_tipo": "SEM TIPO" }, "geometry": { "type": "Point", "coordinates": [ -46.602314820946674, -23.653354608524026 ] } },
{ "type": "Feature", "properties": { "eq_nome": "PARQUE BRISTOL", "eq_enderec": "AVENIDA  JOSE CAETANO DA ROCHA93", "eq_bairro": "", "eq_cep": "", "eq_horario": "", "eq_telefon": "", "eq_regiao": "", "eq_distrit": "", "eq_subpref": "", "eq_esfera": "SEM ESFERA", "eq_classe": "FEIRAS_LIVRES", "eq_rede": "SEM REDE", "eq_tipo": "SEM TIPO" }, "geometry": { "type": "Point", "coordinates": [ -46.609128728824409, -23.646703570500925 ] } },
{ "type": "Feature", "properties": { "eq_nome": "SAO SAVERIO", "eq_enderec": "RUA CANCAO DO EXILIO S/N", "eq_bairro": "", "eq_cep": "", "eq_horario": "", "eq_telefon": "", "eq_regiao": "", "eq_distrit": "", "eq_subpref": "", "eq_esfera": "SEM ESFERA", "eq_classe": "FEIRAS_LIVRES", "eq_rede": "SEM REDE", "eq_tipo": "SEM TIPO" }, "geometry": { "type": "Point", "coordinates": [ -46.61118282413112, -23.652255531565245 ] } },
{ "type": "Feature", "properties": { "eq_nome": "SAO JOAO CLIMACO", "eq_enderec": "RUA JAPARATUBA131", "eq_bairro": "", "eq_cep": "", "eq_horario": "", "eq_telefon": "", "eq_regiao": "", "eq_distrit": "", "eq_subpref": "", "eq_esfera": "SEM ESFERA", "eq_classe": "FEIRAS_LIVRES", "eq_rede": "SEM REDE", "eq_tipo": "SEM TIPO" }, "geometry": { "type": "Point", "coordinates": [ -46.594810832874423, -23.615473481832176 ] } },
{ "type": "Feature", "properties": { "eq_nome": "VILA VERA", "eq_enderec": "AVENIDA CORONEL JOSE PIRES DE ANDRADE466", "eq_bairro": "", "eq_cep": "", "eq_horario": "", "eq_telefon": "", "eq_regiao": "", "eq_distrit": "", "eq_subpref": "", "eq_esfera": "SEM ESFERA", "eq_classe": "FEIRAS_LIVRES", "eq_rede": "SEM REDE", "eq_tipo": "SEM TIPO" }, "geometry": { "type": "Point", "coordinates": [ -46.605603805860191, -23.61926553735988 ] } },
{ "type": "Feature", "properties": { "eq_nome": "VILA BANDEIRANTES", "eq_enderec": "RUA PROF RAUL PEDERNEIRAS125", "eq_bairro": "", "eq_cep": "", "eq_horario": "", "eq_telefon": "", "eq_regiao": "", "eq_distrit": "", "eq_subpref": "", "eq_esfera": "SEM ESFERA", "eq_classe": "FEIRAS_LIVRES", "eq_rede": "SEM REDE", "eq_tipo": "SEM TIPO" }, "geometry": { "type": "Point", "coordinates": [ -46.599863808806575, -23.619158490233765 ] } },
{ "type": "Feature", "properties": { "eq_nome": "SACOMA", "eq_enderec": "RUA AMERICO SAMARONE327", "eq_bairro": "", "eq_cep": "", "eq_horario": "", "eq_telefon": "", "eq_regiao": "", "eq_distrit": "", "eq_subpref": "", "eq_esfera": "SEM ESFERA", "eq_classe": "FEIRAS_LIVRES", "eq_rede": "SEM REDE", "eq_tipo": "SEM TIPO" }, "geometry": { "type": "Point", "coordinates": [ -46.60022068551968, -23.604982424195423 ] } },
{ "type": "Feature", "properties": { "eq_nome": "SANTO ANTONIO DE CATEGERO", "eq_enderec": "RUA SANTO ANTONIO DE CATEGERO S/N", "eq_bairro": "", "eq_cep": "", "eq_horario": "", "eq_telefon": "", "eq_regiao": "", "eq_distrit": "", "eq_subpref": "", "eq_esfera": "SEM ESFERA", "eq_classe": "FEIRAS_LIVRES", "eq_rede": "SEM REDE", "eq_tipo": "SEM TIPO" }, "geometry": { "type": "Point", "coordinates": [ -46.597056789897564, -23.624513498038837 ] } },
{ "type": "Feature", "properties": { "eq_nome": "MARIA ESTELA", "eq_enderec": "PRACA DR CURADO FLEURY 3", "eq_bairro": "", "eq_cep": "", "eq_horario": "", "eq_telefon": "", "eq_regiao": "", "eq_distrit": "", "eq_subpref": "", "eq_esfera": "SEM ESFERA", "eq_classe": "FEIRAS_LIVRES", "eq_rede": "SEM REDE", "eq_tipo": "SEM TIPO" }, "geometry": { "type": "Point", "coordinates": [ -46.594733759653082, -23.636569587839809 ] } },
{ "type": "Feature", "properties": { "eq_nome": "JARDIM BOTUCATU", "eq_enderec": "RUA DR EUGENIO EGAS250", "eq_bairro": "", "eq_cep": "", "eq_horario": "", "eq_telefon": "", "eq_regiao": "", "eq_distrit": "", "eq_subpref": "", "eq_esfera": "SEM ESFERA", "eq_classe": "FEIRAS_LIVRES", "eq_rede": "SEM REDE", "eq_tipo": "SEM TIPO" }, "geometry": { "type": "Point", "coordinates": [ -46.605102752350511, -23.638951629145645 ] } },
{ "type": "Feature", "properties": { "eq_nome": "JARDIM TROPICAL", "eq_enderec": "RUA ENG JOSE BUENO BICALHO11", "eq_bairro": "", "eq_cep": "", "eq_horario": "", "eq_telefon": "", "eq_regiao": "", "eq_distrit": "", "eq_subpref": "", "eq_esfera": "SEM ESFERA", "eq_classe": "FEIRAS_LIVRES", "eq_rede": "SEM REDE", "eq_tipo": "SEM TIPO" }, "geometry": { "type": "Point", "coordinates": [ -46.603835794589656, -23.63243953625182 ] } },
{ "type": "Feature", "properties": { "eq_nome": "VILA HELIOPOLIS", "eq_enderec": "RUA EMBU DE HELIOPOLIS S/N", "eq_bairro": "", "eq_cep": "", "eq_horario": "", "eq_telefon": "", "eq_regiao": "", "eq_distrit": "", "eq_subpref": "", "eq_esfera": "SEM ESFERA", "eq_classe": "FEIRAS_LIVRES", "eq_rede": "SEM REDE", "eq_tipo": "SEM TIPO" }, "geometry": { "type": "Point", "coordinates": [ -46.600184022699978, -23.63714637762131 ] } },
{ "type": "Feature", "properties": { "eq_nome": "JARDIM MARIA ESTELA", "eq_enderec": "PRACA PROFESSOR JAIME POGGI         ", "eq_bairro": "", "eq_cep": "", "eq_horario": "", "eq_telefon": "", "eq_regiao": "", "eq_distrit": "", "eq_subpref": "", "eq_esfera": "SEM ESFERA", "eq_classe": "FEIRAS_LIVRES", "eq_rede": "SEM REDE", "eq_tipo": "SEM TIPO" }, "geometry": { "type": "Point", "coordinates": [ -46.599502150367968, -23.636399833081423 ] } },
{ "type": "Feature", "properties": { "eq_nome": "VILA DAS MERCES", "eq_enderec": "RUA BRIG AMILCAR V PEDERNEIRAS120", "eq_bairro": "", "eq_cep": "", "eq_horario": "", "eq_telefon": "", "eq_regiao": "", "eq_distrit": "", "eq_subpref": "", "eq_esfera": "SEM ESFERA", "eq_classe": "FEIRAS_LIVRES", "eq_rede": "SEM REDE", "eq_tipo": "SEM TIPO" }, "geometry": { "type": "Point", "coordinates": [ -46.608323821007033, -23.638064620839867 ] } },
{ "type": "Feature", "properties": { "eq_nome": "VILA DOS QUARENTA", "eq_enderec": "RUA ANGATURAMA454", "eq_bairro": "", "eq_cep": "", "eq_horario": "", "eq_telefon": "", "eq_regiao": "", "eq_distrit": "", "eq_subpref": "", "eq_esfera": "SEM ESFERA", "eq_classe": "FEIRAS_LIVRES", "eq_rede": "SEM REDE", "eq_tipo": "SEM TIPO" }, "geometry": { "type": "Point", "coordinates": [ -46.608046739992972, -23.624841552510205 ] } },
{ "type": "Feature", "properties": { "eq_nome": "PERDIZES", "eq_enderec": "RUA CAMARAGIBE C/ LOPES CHAVES122", "eq_bairro": "", "eq_cep": "", "eq_horario": "", "eq_telefon": "", "eq_regiao": "", "eq_distrit": "", "eq_subpref": "", "eq_esfera": "SEM ESFERA", "eq_classe": "FEIRAS_LIVRES", "eq_rede": "SEM REDE", "eq_tipo": "SEM TIPO" }, "geometry": { "type": "Point", "coordinates": [ -46.659200027969185, -23.529473153987215 ] } },
{ "type": "Feature", "properties": { "eq_nome": "SANTA CECILIA", "eq_enderec": "RUA SEBASTIAO PEREIRA553", "eq_bairro": "", "eq_cep": "", "eq_horario": "", "eq_telefon": "", "eq_regiao": "", "eq_distrit": "", "eq_subpref": "", "eq_esfera": "SEM ESFERA", "eq_classe": "FEIRAS_LIVRES", "eq_rede": "SEM REDE", "eq_tipo": "SEM TIPO" }, "geometry": { "type": "Point", "coordinates": [ -46.648809001660695, -23.53871826109652 ] } },
{ "type": "Feature", "properties": { "eq_nome": "VITORINO CAMILO", "eq_enderec": "RUA ADOLFO GORDO29", "eq_bairro": "", "eq_cep": "", "eq_horario": "", "eq_telefon": "", "eq_regiao": "", "eq_distrit": "", "eq_subpref": "", "eq_esfera": "SEM ESFERA", "eq_classe": "FEIRAS_LIVRES", "eq_rede": "SEM REDE", "eq_tipo": "SEM TIPO" }, "geometry": { "type": "Point", "coordinates": [ -46.648790048244315, -23.533804191361106 ] } },
{ "type": "Feature", "properties": { "eq_nome": "FORTUNATO", "eq_enderec": "RUA MARTIM FRANCISCO S/N", "eq_bairro": "", "eq_cep": "", "eq_horario": "", "eq_telefon": "", "eq_regiao": "", "eq_distrit": "", "eq_subpref": "", "eq_esfera": "SEM ESFERA", "eq_classe": "FEIRAS_LIVRES", "eq_rede": "SEM REDE", "eq_tipo": "SEM TIPO" }, "geometry": { "type": "Point", "coordinates": [ -46.653846041046975, -23.540800264408862 ] } },
{ "type": "Feature", "properties": { "eq_nome": "TUCURUVI", "eq_enderec": "RUA CASA FORTE S/N", "eq_bairro": "", "eq_cep": "", "eq_horario": "", "eq_telefon": "", "eq_regiao": "", "eq_distrit": "", "eq_subpref": "", "eq_esfera": "SEM ESFERA", "eq_classe": "FEIRAS_LIVRES", "eq_rede": "SEM REDE", "eq_tipo": "SEM TIPO" }, "geometry": { "type": "Point", "coordinates": [ -46.614145783643494, -23.482792065609686 ] } },
{ "type": "Feature", "properties": { "eq_nome": "AGUA FRIA", "eq_enderec": "RUA AURELIANO LEAL C GUATIAIA S/N", "eq_bairro": "", "eq_cep": "", "eq_horario": "", "eq_telefon": "", "eq_regiao": "", "eq_distrit": "", "eq_subpref": "", "eq_esfera": "SEM ESFERA", "eq_classe": "FEIRAS_LIVRES", "eq_rede": "SEM REDE", "eq_tipo": "SEM TIPO" }, "geometry": { "type": "Point", "coordinates": [ -46.621265850162672, -23.48287501657893 ] } },
{ "type": "Feature", "properties": { "eq_nome": "ITAICY", "eq_enderec": "RUA ITAICY S/N", "eq_bairro": "", "eq_cep": "", "eq_horario": "", "eq_telefon": "", "eq_regiao": "", "eq_distrit": "", "eq_subpref": "", "eq_esfera": "SEM ESFERA", "eq_classe": "FEIRAS_LIVRES", "eq_rede": "SEM REDE", "eq_tipo": "SEM TIPO" }, "geometry": { "type": "Point", "coordinates": [ -46.635914944939387, -23.490764099430947 ] } },