id,Rede,Nome,Localizado em,Endereço,Bairro,CEP,Tipo,Latitude,Longitude
Hortifruti_10.071.506,Natural da Terra,Natural da Terra - Tatuapé,Rua,Rua Apucarana, Tatuapé,03311-001,Hortifruti,-23.546458,-46.563423
Hortifruti_10.092.987,Oba Hortifruti,Shopping Market Place,Shopping Center,Rua Chucri Curi, Vila Cordeiro,35701-248,Hortifruti,-23.779579,-45.358564
Hortifruti_10.092.988,Oba Hortifruti,Vila Mascote,Rua,Rua Água Santa, Vila Mascote,37044-270,Hortifruti,-23.552139,-46.647198
Hortifruti_10.140.810,Natural da Terra,Natural da Terra - Moema,Rua,Alameda dos Arapanés, Moema,04524-001,Hortifruti,-23.605926,-46.666333
Hortifruti_10.140.811,Natural da Terra,Natural da Terra - Nhambiquaras,Rua,Alameda dos Nhambiquaras, Indianópolis,04085-000,Hortifruti,-23.608366,-46.660608
Hortifruti_10.190.977,Natural da Terra,Natural da Terra Vila Mascote,Rua,Rua Jorge Rubens Neiva de Camargo, Vila Mascote,04362-060,Hortifruti,-23.665513,-46.647872
Hortifruti_10.190.978,Natural da Terra,Natural da Terra Vila Mariana,Rua,Rua Rio Grande, Vila Mariana,04018-001,Hortifruti,-23.588296,-46.64246
Hortifruti_10.509.990,Natural da Terra,Natural da Terra - Vila Olímpia,Rua,Avenida Hélio Pellegrino, Vila Nova Conceição,04513-100,Hortifruti,-23.895597,-46.425581
Hortifruti_10.509.991,Natural da Terra,Cd Natural da Terra,Rua,Avenida Imperatriz Leopoldina, Vila Leopoldina,05305-000,Hortifruti,-23.530652,-46.73118
Hortifruti_10.572.964,Hortifruti,Hortifruti Penha Brasil,Rua,Avenida General Penha Brasil, Vila Nova Cachoeirinha,02673-000,Hortifruti,-23.458907,-46.674891
Hortifruti_10.572.976,Hortifruti,Hortifruti,Rua,Rua Carvalho do Brasil, Jardim das Camélias,08050-290,Hortifruti,-23.652387,-46.533937
Hortifruti_1.654.077,Oba Hortifruti,Santana Tolle,Rua,Praça Coronel-Polícia Militar Paulo de Tarso Augusto, Santana,02405-001,Hortifruti,-22.664013,-47.697473
Hortifruti_1.655.052,Oba Hortifruti,Tatuapé,Rua,Rua Francisco Justino de Azevedo, Tatuapé,03322-001,Hortifruti,-23.562773,-46.623873
Hortifruti_1.655.055,Oba Hortifruti,Vila Prudente,Rua,Praça Maria do Carmo Del Ré, Vila Prudente,03133-200,Hortifruti,-23.590511,-46.572229
Hortifruti_1.655.062,Oba Hortifruti,Morumbi,Rua,"Avenida Paulista, 2100", Vila Andrade,05726-130,Hortifruti,-23.624447,-46.727322
Hortifruti_1.655.063,Oba Hortifruti,Moema,Rua,Rua Antônio Macuco Alves, Indianópolis,04523-001,Hortifruti,-23.574255,-46.762864
Hortifruti_1.655.064,Oba Hortifruti,Butantã,Rua,"Avenida Corifeu de Azevedo Marques, 2400", Butantã,05582-000,Hortifruti,-23.573219,-46.735827
Hortifruti_1.655.065,Oba Hortifruti,Santana Pujol,Rua,Praça Alfredo Egydio Arruda Villela, Santana,02017-003,Hortifruti,-23.502748,-46.62639
Hortifruti_1.655.066,Oba Hortifruti,Penha,Rua,Rua Pires da Mota, Jardim América da Penha,03653-000,Hortifruti,-22.771303,-47.148817
Hortifruti_2.514.790,Oba Hortifruti,Santana Ataliba,Rua,Rua General Flores, Santana,02033-000,Hortifruti,-23.522878,-46.642862
Hortifruti_3.958.724,Natural da Terra,Natural da Terra,Rua,Rua Santo Amaro, Chácara Santo Antônio (Zona Leste),04702-002,Hortifruti,-23.618596,-46.573278
Hortifruti_3.958.725,Natural da Terra,Natural da Terra,Rua,Rua Rosa e Silva, Higienópolis,01230-907,Hortifruti,-23.534425,-46.657623
Hortifruti_3.958.726,Natural da Terra,Natural da Terra - Santo Amaro,Rua,Rua Santo Amaro, Brooklin Novo,04555-001,Hortifruti,-23.639888,-46.700715
Hortifruti_3.958.727,Natural da Terra,Natural da Terra - Vila Madalena,Rua,Travessa Rancho das Flores, Sumarezinho,05442-050,Hortifruti,-23.677023,-46.651916
Hortifruti_3.958.728,Natural da Terra,Natural da Terra,Rua,Rua João Cachoeira, Itaim Bibi,04535-014,Hortifruti,-23.58485,-46.677775
Hortifruti_4.256.892,Natural da Terra,Natural da Terra,Rua,Rua Muniz de Sousa, Jardim Marajoara,04675-230,Hortifruti,-23.652387,-46.533937
Hortifruti_4.805.691,Oba Hortifruti,Mooca,Rua,"Rua Tobias Barreto, 735", Mooca,03176-000,Hortifruti,-23.551649,-46.589955
Hortifruti_5.647.826,Oba Hortifruti,Vila Mariana,Rua,"Rua Domingos de Morais, 193", Bosque da Saúde,04035-001,Hortifruti,-23.578814,-46.640722
Hortifruti_5.916.031,Natural da Terra,Natural da Terra,Rua,Rua Manuel da Nóbrega, Paraíso,04001-081,Hortifruti,-23.707032,-46.548172
Hortifruti_7.020.526,Oba Hortifruti,Anália Franco,Rua,Rua Antônio Alves Barril, Jardim Anália Franco,03338-000,Hortifruti,-23.559553,-46.561103
Hortifruti_7.020.529,Oba Hortifruti,Pinheiros,Rua,Rua Teodoro Sampaio, Pinheiros,13171-814,Hortifruti,-23.561305,-46.683749
Hortifruti_7.332.174,Natural da Terra,Natural da Terra,Rua,Rua dos Patriotas, Ipiranga,04207-030,Hortifruti,-23.583177,-46.603238
Hortifruti_7.332.177,Oba Hortifruti,Vila Leopoldina,Rua,Praça Maria do Carmo Del Ré, Sé,05315-010,Hortifruti,-23.549387,-46.63209
Hortifruti_7.332.178,Oba Hortifruti,Higienópolis,Rua,Travessa Angélica dos Campos, Santa Cecília,01227-000,Hortifruti,-23.539212,-46.657992
Hortifruti_10.092.985,Oba Hortifruti,Perdizes,Rua,Praça Maria do Carmo Del Ré, Burgo Paulista,3682150,Hortifruti,-22.738192,-47.659055
Hortifruti_10.092.986,Oba Hortifruti,Whitaker,Rua,"Avenida José Maria Whitaker, 603", Planalto Paulista,4057900,Hortifruti,-23.606214,-46.64822
Hortifruti_10.092.989,Oba Hortifruti,Interlagos,Rua,"Rua Oriente, 500 Mezanino 1/2", Brás,3016970,Hortifruti,-23.537977,-46.617284
Hortifruti_10.098.948,Oba Hortifruti,Oba São Paulo Itaim Bibi,Rua,Rua Juscelino Kubitschek, Parque Novo Santo Amaro,5874230,Hortifruti,-23.699395,-46.782735
Hortifruti_10.156.129,Oba Hortifruti,,Rua,"Rua Pamplona, 227", Jardim Paulista,1405902,Hortifruti,-23.560687,-46.651544
Hortifruti_10.156.130,Oba Hortifruti,,Rua,"Rua Conselheiro Moreira de Barros, 2554", Lauzane Paulista,2430971,Hortifruti,-23.48352,-46.643796
Hortifruti_10.190.979,Oba Hortifruti,Oba Farm  Campo Belo,Rua,Rua João do Prado, Aclimação,4109110,Hortifruti,-23.576492,-46.631721
Hortifruti_3.958.737,Sacolão Saúde,Vila Mariana,Rua,"Avenida Padre Pereira de Andrade, 545", Boaçava,5469900,Hortifruti,-23.551315,-46.706929
Hortifruti_3.958.738,Sacolão Saúde,Santa Cecília,Rua,"Avenida Brigadeiro Luís Antônio, 278", Bela Vista,1318901,Hortifruti,-23.553274,-46.638176
Hortifruti_7.332.179,Sacolão Saúde,Loja Vila das Mercês,Rua,Praça André Nunes, Vila das Mercês,4165160,Hortifruti,-23.552139,-46.647198
